%time,field.header.seq,field.header.stamp,field.header.frame_id,field.orientation.x,field.orientation.y,field.orientation.z,field.orientation.w,field.orientation_covariance0,field.orientation_covariance1,field.orientation_covariance2,field.orientation_covariance3,field.orientation_covariance4,field.orientation_covariance5,field.orientation_covariance6,field.orientation_covariance7,field.orientation_covariance8,field.angular_velocity.x,field.angular_velocity.y,field.angular_velocity.z,field.angular_velocity_covariance0,field.angular_velocity_covariance1,field.angular_velocity_covariance2,field.angular_velocity_covariance3,field.angular_velocity_covariance4,field.angular_velocity_covariance5,field.angular_velocity_covariance6,field.angular_velocity_covariance7,field.angular_velocity_covariance8,field.linear_acceleration.x,field.linear_acceleration.y,field.linear_acceleration.z,field.linear_acceleration_covariance0,field.linear_acceleration_covariance1,field.linear_acceleration_covariance2,field.linear_acceleration_covariance3,field.linear_acceleration_covariance4,field.linear_acceleration_covariance5,field.linear_acceleration_covariance6,field.linear_acceleration_covariance7,field.linear_acceleration_covariance8
1489584291561542308,0,1489584291559254343,,45.4622917175,-166.991043091,29.8578338623,3733.95678711,1.0,0.0,0.0,0.0,1.0,0.0,0.0,0.0,1.0,-0.243902444839,-4.08536577225,1.64634156227,1.0,0.0,0.0,0.0,1.0,0.0,0.0,0.0,1.0,0.502782348633,-3.37582434082,11.7938373779,1.0,0.0,0.0,0.0,1.0,0.0,0.0,0.0,1.0
1489584291583320608,1,1489584291581417070,,45.301990509,-167.108901978,29.5465450287,0.00353899993934,1.0,0.0,0.0,0.0,1.0,0.0,0.0,0.0,1.0,0.0,-0.914634168148,0.12195122242,1.0,0.0,0.0,0.0,1.0,0.0,0.0,0.0,1.0,1.71903679199,-2.86825358887,9.8545340332,1.0,0.0,0.0,0.0,1.0,0.0,0.0,0.0,1.0
1489584291606732396,2,1489584291603568234,,45.384967804,-166.828857422,29.1117725372,0.00255100009963,1.0,0.0,0.0,0.0,1.0,0.0,0.0,0.0,1.0,-0.731707334518,2.01219511032,-1.70731711388,1.0,0.0,0.0,0.0,1.0,0.0,0.0,0.0,1.0,1.51313544922,-3.42370837402,10.0508585693,1.0,0.0,0.0,0.0,1.0,0.0,0.0,0.0,1.0
1489584291633424074,3,1489584291630549651,,45.9614562988,-166.054336548,28.987039566,0.0041579999961,1.0,0.0,0.0,0.0,1.0,0.0,0.0,0.0,1.0,-0.487804889679,3.7804877758,-2.5,1.0,0.0,0.0,0.0,1.0,0.0,0.0,0.0,1.0,2.59052619629,-3.19865341797,9.99818613281,1.0,0.0,0.0,0.0,1.0,0.0,0.0,0.0,1.0
1489584291656314143,4,1489584291654050240,,46.3857650757,-165.890869141,28.7827854156,0.0042610000819,1.0,0.0,0.0,0.0,1.0,0.0,0.0,0.0,1.0,-0.975609779358,4.51219558716,-4.14634132385,1.0,0.0,0.0,0.0,1.0,0.0,0.0,0.0,1.0,1.51792385254,-2.74854350586,9.67257470703,1.0,0.0,0.0,0.0,1.0,0.0,0.0,0.0,1.0
1489584291674383438,5,1489584291672556097,,46.2447357178,-165.959701538,28.6198673248,0.00428499979898,1.0,0.0,0.0,0.0,1.0,0.0,0.0,0.0,1.0,-1.58536589146,5.73170757294,-4.81707286835,1.0,0.0,0.0,0.0,1.0,0.0,0.0,0.0,1.0,1.81001645508,-2.95923325195,9.47146118306,1.0,0.0,0.0,0.0,1.0,0.0,0.0,0.0,1.0
1489584291696465123,6,1489584291694356845,,45.882900238,-166.10585022,28.3669967651,0.00420700013638,1.0,0.0,0.0,0.0,1.0,0.0,0.0,0.0,1.0,-1.46341466904,6.7682929039,-5.60975599289,1.0,0.0,0.0,0.0,1.0,0.0,0.0,0.0,1.0,2.02549460449,-3.36624753418,9.53849999858,1.0,0.0,0.0,0.0,1.0,0.0,0.0,0.0,1.0
1489584291717248842,7,1489584291714830876,,45.5791320801,-166.192810059,28.1797561646,0.00337600009516,1.0,0.0,0.0,0.0,1.0,0.0,0.0,0.0,1.0,-1.15853655338,5.42682933807,-5.91463422775,1.0,0.0,0.0,0.0,1.0,0.0,0.0,0.0,1.0,1.75734401855,-3.22259543457,9.48582756206,1.0,0.0,0.0,0.0,1.0,0.0,0.0,0.0,1.0
1489584291740745524,8,1489584291738349330,,45.2970809937,-166.242721558,28.0168972015,0.00317799998447,1.0,0.0,0.0,0.0,1.0,0.0,0.0,0.0,1.0,-0.731707334518,4.39024400711,-5.18292713165,1.0,0.0,0.0,0.0,1.0,0.0,0.0,0.0,1.0,1.65199914551,-3.33751711426,9.47146118306,1.0,0.0,0.0,0.0,1.0,0.0,0.0,0.0,1.0
1489584291762989345,9,1489584291760765286,,45.0169487,-166.327453613,27.7791461945,0.0029579999391,1.0,0.0,0.0,0.0,1.0,0.0,0.0,0.0,1.0,-0.609756112099,4.14634132385,-3.29268312454,1.0,0.0,0.0,0.0,1.0,0.0,0.0,0.0,1.0,1.5562310791,-3.39976635742,9.36132790669,1.0,0.0,0.0,0.0,1.0,0.0,0.0,0.0,1.0
1489584291790091178,10,1489584291784720249,,44.7850532532,-166.395324707,27.5630435944,0.0025420000311,1.0,0.0,0.0,0.0,1.0,0.0,0.0,0.0,1.0,0.426829278469,4.45121955872,-1.8292683363,1.0,0.0,0.0,0.0,1.0,0.0,0.0,0.0,1.0,1.54186586914,-3.36624753418,9.35653950337,1.0,0.0,0.0,0.0,1.0,0.0,0.0,0.0,1.0
1489584291807561360,11,1489584291805527457,,44.5627632141,-166.498153687,27.2959041595,0.00244399998337,1.0,0.0,0.0,0.0,1.0,0.0,0.0,0.0,1.0,0.609756112099,3.71951246262,-1.2195122242,1.0,0.0,0.0,0.0,1.0,0.0,0.0,0.0,1.0,1.55144267578,-3.20344182129,9.50019277202,1.0,0.0,0.0,0.0,1.0,0.0,0.0,0.0,1.0
1489584291831674188,12,1489584291826782737,,44.3504219055,-166.622329712,26.9972381592,0.00247299997136,1.0,0.0,0.0,0.0,1.0,0.0,0.0,0.0,1.0,1.15853655338,3.23170733452,0.0,1.0,0.0,0.0,0.0,1.0,0.0,0.0,0.0,1.0,1.4604630127,-3.3231519043,9.48103915874,1.0,0.0,0.0,0.0,1.0,0.0,0.0,0.0,1.0
1489584291848576922,13,1489584291845108855,,44.1635055542,-166.748062134,26.6868133545,0.00251800008118,1.0,0.0,0.0,0.0,1.0,0.0,0.0,0.0,1.0,1.2804877758,0.914634168148,1.2195122242,1.0,0.0,0.0,0.0,1.0,0.0,0.0,0.0,1.0,1.67115275879,-3.13161577148,9.41400034321,1.0,0.0,0.0,0.0,1.0,0.0,0.0,0.0,1.0
1489584291869086266,14,1489584291866440801,,44.0126991272,-166.895629883,26.3511638641,0.0024689999409,1.0,0.0,0.0,0.0,1.0,0.0,0.0,0.0,1.0,1.34146344662,0.609756112099,1.95121955872,1.0,0.0,0.0,0.0,1.0,0.0,0.0,0.0,1.0,1.75255561523,-3.05500131836,9.48103915874,1.0,0.0,0.0,0.0,1.0,0.0,0.0,0.0,1.0
1489584291892310189,15,1489584291889911391,,43.8430557251,-167.083755493,25.9639282227,0.00277199991979,1.0,0.0,0.0,0.0,1.0,0.0,0.0,0.0,1.0,0.426829278469,0.426829278469,2.01219511032,1.0,0.0,0.0,0.0,1.0,0.0,0.0,0.0,1.0,1.7908628418,-3.03584770508,9.54807680523,1.0,0.0,0.0,0.0,1.0,0.0,0.0,0.0,1.0
1489584291916227653,16,1489584291913896615,,43.7093238831,-167.307571411,25.5411510468,0.00353899993934,1.0,0.0,0.0,0.0,1.0,0.0,0.0,0.0,1.0,-0.243902444839,-0.548780500889,1.8292683363,1.0,0.0,0.0,0.0,1.0,0.0,0.0,0.0,1.0,1.81001645508,-3.10767375488,9.65821008159,1.0,0.0,0.0,0.0,1.0,0.0,0.0,0.0,1.0
1489584291938563660,17,1489584291934952937,,43.6095466614,-167.464096069,25.2279014587,0.00296099996194,1.0,0.0,0.0,0.0,1.0,0.0,0.0,0.0,1.0,-0.792682945728,-0.731707334518,2.19512200356,1.0,0.0,0.0,0.0,1.0,0.0,0.0,0.0,1.0,1.76213242187,-3.28005627441,9.55286520855,1.0,0.0,0.0,0.0,1.0,0.0,0.0,0.0,1.0
1489584291957536444,18,1489584291955560926,,43.5153465271,-167.67124939,24.8499183655,0.00288600008935,1.0,0.0,0.0,0.0,1.0,0.0,0.0,0.0,1.0,-1.70731711388,-1.46341466904,2.37804889679,1.0,0.0,0.0,0.0,1.0,0.0,0.0,0.0,1.0,1.70945998535,-3.064578125,9.55765361187,1.0,0.0,0.0,0.0,1.0,0.0,0.0,0.0,1.0
1489584291979317088,19,1489584291976037926,,43.4395637512,-167.835617065,24.5575771332,0.00316699990071,1.0,0.0,0.0,0.0,1.0,0.0,0.0,0.0,1.0,-1.95121955872,-1.2195122242,1.52439022064,1.0,0.0,0.0,0.0,1.0,0.0,0.0,0.0,1.0,1.74297880859,-3.09330854492,9.63426806499,1.0,0.0,0.0,0.0,1.0,0.0,0.0,0.0,1.0
1489584291999637473,20,1489584291996694197,,43.3221626282,-168.019363403,24.2329750061,0.00296700000763,1.0,0.0,0.0,0.0,1.0,0.0,0.0,0.0,1.0,-1.2195122242,-0.548780500889,1.2804877758,1.0,0.0,0.0,0.0,1.0,0.0,0.0,0.0,1.0,1.85790048828,-3.09809694824,9.60553764507,1.0,0.0,0.0,0.0,1.0,0.0,0.0,0.0,1.0
1489584292021146347,21,1489584292017605779,,43.1977767944,-168.209503174,23.8625679016,0.00250099995174,1.0,0.0,0.0,0.0,1.0,0.0,0.0,0.0,1.0,-0.365853667259,0.853658556938,0.853658556938,1.0,0.0,0.0,0.0,1.0,0.0,0.0,0.0,1.0,1.69509477539,-3.10288535156,9.27513723145,1.0,0.0,0.0,0.0,1.0,0.0,0.0,0.0,1.0
1489584292043574698,22,1489584292040226786,,43.0705032349,-168.304702759,23.5849456787,0.00260500004515,1.0,0.0,0.0,0.0,1.0,0.0,0.0,0.0,1.0,-0.18292683363,1.2804877758,0.365853667259,1.0,0.0,0.0,0.0,1.0,0.0,0.0,0.0,1.0,1.67594116211,-3.35667072754,9.36611631001,1.0,0.0,0.0,0.0,1.0,0.0,0.0,0.0,1.0
1489584292067083829,23,1489584292063127429,,42.8886642456,-168.385864258,23.3177490234,0.00274199992418,1.0,0.0,0.0,0.0,1.0,0.0,0.0,0.0,1.0,1.46341466904,1.8902438879,-0.792682945728,1.0,0.0,0.0,0.0,1.0,0.0,0.0,0.0,1.0,1.64721074219,-3.21301862793,9.47624958638,1.0,0.0,0.0,0.0,1.0,0.0,0.0,0.0,1.0
1489584292089481034,24,1489584292085046510,,42.7268829346,-168.43170166,23.0970172882,0.002416000003,1.0,0.0,0.0,0.0,1.0,0.0,0.0,0.0,1.0,1.46341466904,2.92682933807,-2.25609779358,1.0,0.0,0.0,0.0,1.0,0.0,0.0,0.0,1.0,1.91536132812,-3.14598098145,9.47146118306,1.0,0.0,0.0,0.0,1.0,0.0,0.0,0.0,1.0
1489584292109842878,25,1489584292106459967,,42.510345459,-168.490997314,22.8658409119,0.00240099988878,1.0,0.0,0.0,0.0,1.0,0.0,0.0,0.0,1.0,1.03658533096,4.32926845551,-3.23170733452,1.0,0.0,0.0,0.0,1.0,0.0,0.0,0.0,1.0,2.01112939453,-2.96881005859,9.56723041851,1.0,0.0,0.0,0.0,1.0,0.0,0.0,0.0,1.0
1489584292131735449,26,1489584292129929254,,42.2554740906,-168.54119873,22.6445198059,0.00385900004767,1.0,0.0,0.0,0.0,1.0,0.0,0.0,0.0,1.0,0.487804889679,5.60975599289,-3.96341490746,1.0,0.0,0.0,0.0,1.0,0.0,0.0,0.0,1.0,1.72861359863,-3.04542451172,9.53371159526,1.0,0.0,0.0,0.0,1.0,0.0,0.0,0.0,1.0
1489584292153903540,27,1489584292152061147,,41.990814209,-168.588485718,22.4314918518,0.00279100006446,1.0,0.0,0.0,0.0,1.0,0.0,0.0,0.0,1.0,0.670731723309,5.79268312454,-3.90243911743,1.0,0.0,0.0,0.0,1.0,0.0,0.0,0.0,1.0,1.85790048828,-3.09330854492,9.45230756977,1.0,0.0,0.0,0.0,1.0,0.0,0.0,0.0,1.0
1489584292176348454,28,1489584292174153405,,41.734249115,-168.626312256,22.245388031,0.00293700001203,1.0,0.0,0.0,0.0,1.0,0.0,0.0,0.0,1.0,0.426829278469,6.21951246262,-3.53658556938,1.0,0.0,0.0,0.0,1.0,0.0,0.0,0.0,1.0,1.8626888916,-3.0406361084,9.50498117534,1.0,0.0,0.0,0.0,1.0,0.0,0.0,0.0,1.0
1489584292198454722,29,1489584292196495975,,41.4646644592,-168.654586792,22.0646133423,0.00269300001673,1.0,0.0,0.0,0.0,1.0,0.0,0.0,0.0,1.0,0.304878056049,6.52439069748,-3.23170733452,1.0,0.0,0.0,0.0,1.0,0.0,0.0,0.0,1.0,1.74297880859,-3.08373173828,9.50976957866,1.0,0.0,0.0,0.0,1.0,0.0,0.0,0.0,1.0
1489584292220919480,30,1489584292219048024,,41.1914825439,-168.713012695,21.8336162567,0.00281400000677,1.0,0.0,0.0,0.0,1.0,0.0,0.0,0.0,1.0,0.731707334518,6.0365858078,-2.80487799644,1.0,0.0,0.0,0.0,1.0,0.0,0.0,0.0,1.0,1.59932670898,-3.19386501465,9.50498117534,1.0,0.0,0.0,0.0,1.0,0.0,0.0,0.0,1.0
1489584292242607676,31,1489584292240776012,,40.9367599487,-168.730270386,21.635011673,0.00254700006917,1.0,0.0,0.0,0.0,1.0,0.0,0.0,0.0,1.0,0.853658556938,5.42682933807,-1.8902438879,1.0,0.0,0.0,0.0,1.0,0.0,0.0,0.0,1.0,1.63763393555,-3.34230551758,9.35653950337,1.0,0.0,0.0,0.0,1.0,0.0,0.0,0.0,1.0
1489584292264980558,32,1489584292263117957,,40.7014389038,-168.779602051,21.3838443756,0.00243499991484,1.0,0.0,0.0,0.0,1.0,0.0,0.0,0.0,1.0,0.975609779358,4.87804889679,-1.2804877758,1.0,0.0,0.0,0.0,1.0,0.0,0.0,0.0,1.0,1.59932670898,-3.10767375488,9.50976957866,1.0,0.0,0.0,0.0,1.0,0.0,0.0,0.0,1.0
1489584292287614899,33,1489584292285741776,,40.5121231079,-168.821426392,21.1519489288,0.00244199996814,1.0,0.0,0.0,0.0,1.0,0.0,0.0,0.0,1.0,0.792682945728,4.08536577225,-0.670731723309,1.0,0.0,0.0,0.0,1.0,0.0,0.0,0.0,1.0,1.75255561523,-3.12203896484,9.57201882183,1.0,0.0,0.0,0.0,1.0,0.0,0.0,0.0,1.0
1489584292310457885,34,1489584292308410440,,40.330242157,-168.928192139,20.8402423859,0.00242900010198,1.0,0.0,0.0,0.0,1.0,0.0,0.0,0.0,1.0,0.426829278469,3.35365867615,0.243902444839,1.0,0.0,0.0,0.0,1.0,0.0,0.0,0.0,1.0,1.5562310791,-3.02148249512,9.62469125835,1.0,0.0,0.0,0.0,1.0,0.0,0.0,0.0,1.0
1489584292332439205,35,1489584292329752647,,40.1780586243,-169.026260376,20.5500564575,0.0040830001235,1.0,0.0,0.0,0.0,1.0,0.0,0.0,0.0,1.0,0.12195122242,2.62195134163,0.304878056049,1.0,0.0,0.0,0.0,1.0,0.0,0.0,0.0,1.0,1.51313544922,-3.09330854492,9.57680722515,1.0,0.0,0.0,0.0,1.0,0.0,0.0,0.0,1.0
1489584292354818598,36,1489584292352421831,,40.0486450195,-169.133834839,20.2463359833,0.00285800010897,1.0,0.0,0.0,0.0,1.0,0.0,0.0,0.0,1.0,0.243902444839,1.8292683363,0.731707334518,1.0,0.0,0.0,0.0,1.0,0.0,0.0,0.0,1.0,1.68072956543,-2.91613762207,9.57680722515,1.0,0.0,0.0,0.0,1.0,0.0,0.0,0.0,1.0
1489584292376291690,37,1489584292374924401,,39.9388999939,-169.238037109,19.9565315247,0.00281199999154,1.0,0.0,0.0,0.0,1.0,0.0,0.0,0.0,1.0,-0.12195122242,1.2804877758,0.609756112099,1.0,0.0,0.0,0.0,1.0,0.0,0.0,0.0,1.0,1.58496149902,-3.0885201416,9.52892319194,1.0,0.0,0.0,0.0,1.0,0.0,0.0,0.0,1.0
1489584292398821031,38,1489584292397418742,,39.8263130188,-169.315673828,19.6933746338,0.0025490000844,1.0,0.0,0.0,0.0,1.0,0.0,0.0,0.0,1.0,-0.0609756112099,0.18292683363,1.09756100178,1.0,0.0,0.0,0.0,1.0,0.0,0.0,0.0,1.0,1.62805712891,-3.25132585449,9.53371159526,1.0,0.0,0.0,0.0,1.0,0.0,0.0,0.0,1.0
1489584292422672036,39,1489584292420379019,,39.7218437195,-169.422027588,19.374256134,0.00250699999742,1.0,0.0,0.0,0.0,1.0,0.0,0.0,0.0,1.0,0.243902444839,-0.243902444839,1.34146344662,1.0,0.0,0.0,0.0,1.0,0.0,0.0,0.0,1.0,1.57059628906,-3.25132585449,9.40442353657,1.0,0.0,0.0,0.0,1.0,0.0,0.0,0.0,1.0
1489584292443253567,40,1489584292441863778,,39.6301116943,-169.508529663,19.0970783234,0.00250599998981,1.0,0.0,0.0,0.0,1.0,0.0,0.0,0.0,1.0,0.12195122242,-0.670731723309,0.975609779358,1.0,0.0,0.0,0.0,1.0,0.0,0.0,0.0,1.0,1.58496149902,-3.07415493164,9.4954043687,1.0,0.0,0.0,0.0,1.0,0.0,0.0,0.0,1.0
1489584292465096295,41,1489584292463635724,,39.5439682007,-169.602844238,18.8146152496,0.00241700001061,1.0,0.0,0.0,0.0,1.0,0.0,0.0,0.0,1.0,0.243902444839,-0.609756112099,0.731707334518,1.0,0.0,0.0,0.0,1.0,0.0,0.0,0.0,1.0,1.67115275879,-3.09809694824,9.57201882183,1.0,0.0,0.0,0.0,1.0,0.0,0.0,0.0,1.0
1489584292489704226,42,1489584292485890430,,39.4246139526,-169.6796875,18.5413341522,0.00243999995291,1.0,0.0,0.0,0.0,1.0,0.0,0.0,0.0,1.0,0.365853667259,-0.670731723309,0.731707334518,1.0,0.0,0.0,0.0,1.0,0.0,0.0,0.0,1.0,1.95845695801,-3.16513459473,9.56723041851,1.0,0.0,0.0,0.0,1.0,0.0,0.0,0.0,1.0
1489584292511837109,43,1489584292507375657,,39.2948493958,-169.745407104,18.2845935822,0.00242900010198,1.0,0.0,0.0,0.0,1.0,0.0,0.0,0.0,1.0,0.12195122242,-0.365853667259,0.304878056049,1.0,0.0,0.0,0.0,1.0,0.0,0.0,0.0,1.0,1.8148048584,-3.12682736816,9.55286520855,1.0,0.0,0.0,0.0,1.0,0.0,0.0,0.0,1.0
1489584292534177023,44,1489584292528744739,,39.1560707092,-169.79359436,18.056930542,0.00363299995661,1.0,0.0,0.0,0.0,1.0,0.0,0.0,0.0,1.0,0.12195122242,1.03658533096,0.12195122242,1.0,0.0,0.0,0.0,1.0,0.0,0.0,0.0,1.0,1.9105729248,-3.04542451172,9.53371159526,1.0,0.0,0.0,0.0,1.0,0.0,0.0,0.0,1.0
1489584292552474859,45,1489584292551161632,,38.971370697,-169.83152771,17.8318042755,0.00279600010253,1.0,0.0,0.0,0.0,1.0,0.0,0.0,0.0,1.0,0.365853667259,1.8902438879,-0.18292683363,1.0,0.0,0.0,0.0,1.0,0.0,0.0,0.0,1.0,1.90099611816,-3.03584770508,9.49061596538,1.0,0.0,0.0,0.0,1.0,0.0,0.0,0.0,1.0
1489584292575329876,46,1489584292573617587,,38.7478599548,-169.899810791,17.5511798859,0.00281199999154,1.0,0.0,0.0,0.0,1.0,0.0,0.0,0.0,1.0,0.792682945728,2.68292689323,-0.12195122242,1.0,0.0,0.0,0.0,1.0,0.0,0.0,0.0,1.0,1.75734401855,-3.13161577148,9.48103915874,1.0,0.0,0.0,0.0,1.0,0.0,0.0,0.0,1.0
1489584292597375676,47,1489584292596070886,,38.5610923767,-169.927490234,17.3187541962,0.00257500004955,1.0,0.0,0.0,0.0,1.0,0.0,0.0,0.0,1.0,0.487804889679,2.37804889679,0.18292683363,1.0,0.0,0.0,0.0,1.0,0.0,0.0,0.0,1.0,1.65199914551,-3.20344182129,9.56244201519,1.0,0.0,0.0,0.0,1.0,0.0,0.0,0.0,1.0
1489584292620457516,48,1489584292618267988,,38.3856048584,-169.968688965,17.0712051392,0.00271599995904,1.0,0.0,0.0,0.0,1.0,0.0,0.0,0.0,1.0,0.0,2.07317066193,0.243902444839,1.0,0.0,0.0,0.0,1.0,0.0,0.0,0.0,1.0,1.61848032227,-3.26090266113,9.49061596538,1.0,0.0,0.0,0.0,1.0,0.0,0.0,0.0,1.0
1489584292642266753,49,1489584292640372954,,38.244304657,-170.016387939,16.8284606934,0.00287099997513,1.0,0.0,0.0,0.0,1.0,0.0,0.0,0.0,1.0,0.12195122242,1.09756100178,0.792682945728,1.0,0.0,0.0,0.0,1.0,0.0,0.0,0.0,1.0,1.56580788574,-3.09330854492,9.4570959731,1.0,0.0,0.0,0.0,1.0,0.0,0.0,0.0,1.0
1489584292664549688,50,1489584292662681410,,38.1146812439,-170.063064575,16.5708026886,0.00248500006273,1.0,0.0,0.0,0.0,1.0,0.0,0.0,0.0,1.0,0.853658556938,0.548780500889,0.548780500889,1.0,0.0,0.0,0.0,1.0,0.0,0.0,0.0,1.0,1.59932670898,-3.064578125,9.52413478862,1.0,0.0,0.0,0.0,1.0,0.0,0.0,0.0,1.0
1489584292687949913,51,1489584292686016010,,37.9876403809,-170.110733032,16.3152256012,0.00335899996571,1.0,0.0,0.0,0.0,1.0,0.0,0.0,0.0,1.0,0.0609756112099,0.18292683363,0.304878056049,1.0,0.0,0.0,0.0,1.0,0.0,0.0,0.0,1.0,1.82438166504,-3.07415493164,9.59117243511,1.0,0.0,0.0,0.0,1.0,0.0,0.0,0.0,1.0
1489584292710203733,52,1489584292708164153,,37.8692512512,-170.143753052,16.1071891785,0.00366299995221,1.0,0.0,0.0,0.0,1.0,0.0,0.0,0.0,1.0,-0.426829278469,1.03658533096,0.426829278469,1.0,0.0,0.0,0.0,1.0,0.0,0.0,0.0,1.0,1.74776721191,-3.0166940918,9.64384487163,1.0,0.0,0.0,0.0,1.0,0.0,0.0,0.0,1.0
1489584292734896143,53,1489584292731145993,,37.7148208618,-170.180160522,15.8865242004,0.00475399987772,1.0,0.0,0.0,0.0,1.0,0.0,0.0,0.0,1.0,-0.487804889679,0.731707334518,0.304878056049,1.0,0.0,0.0,0.0,1.0,0.0,0.0,0.0,1.0,1.84832368164,-3.08373173828,9.43794235981,1.0,0.0,0.0,0.0,1.0,0.0,0.0,0.0,1.0
1489584292754318145,54,1489584292752474294,,37.5548744202,-170.233886719,15.6600522995,0.00363299995661,1.0,0.0,0.0,0.0,1.0,0.0,0.0,0.0,1.0,-0.548780500889,1.2804877758,0.365853667259,1.0,0.0,0.0,0.0,1.0,0.0,0.0,0.0,1.0,1.87226569824,-3.03584770508,9.57680722515,1.0,0.0,0.0,0.0,1.0,0.0,0.0,0.0,1.0
1489584292778463994,55,1489584292775145978,,37.3676223755,-170.310134888,15.402545929,0.00390099990182,1.0,0.0,0.0,0.0,1.0,0.0,0.0,0.0,1.0,-0.792682945728,1.70731711388,-0.12195122242,1.0,0.0,0.0,0.0,1.0,0.0,0.0,0.0,1.0,1.78607443848,-3.03584770508,9.42357714985,1.0,0.0,0.0,0.0,1.0,0.0,0.0,0.0,1.0
1489584292799568493,56,1489584292796049852,,37.2223815918,-170.343673706,15.2088909149,0.0031940001063,1.0,0.0,0.0,0.0,1.0,0.0,0.0,0.0,1.0,-0.914634168148,1.52439022064,0.0609756112099,1.0,0.0,0.0,0.0,1.0,0.0,0.0,0.0,1.0,1.75255561523,-3.03584770508,9.65821008159,1.0,0.0,0.0,0.0,1.0,0.0,0.0,0.0,1.0
1489584292820085701,57,1489584292817527840,,37.1018028259,-170.364028931,15.0128984451,0.00368999992497,1.0,0.0,0.0,0.0,1.0,0.0,0.0,0.0,1.0,-0.731707334518,0.975609779358,0.975609779358,1.0,0.0,0.0,0.0,1.0,0.0,0.0,0.0,1.0,1.69030637207,-3.13161577148,9.47146118306,1.0,0.0,0.0,0.0,1.0,0.0,0.0,0.0,1.0
1489584292842411500,58,1489584292839954004,,36.6251754761,-170.345947266,14.7660074234,0.00308599998243,1.0,0.0,0.0,0.0,1.0,0.0,0.0,0.0,1.0,20.4268302917,3.35365867615,-7.07317113876,1.0,0.0,0.0,0.0,1.0,0.0,0.0,0.0,1.0,-2.11168571813,-3.66312854004,-2.54743056641,1.0,0.0,0.0,0.0,1.0,0.0,0.0,0.0,1.0
1489584292865621986,59,1489584292862349178,,36.5039787292,-170.317199707,14.557882309,0.00302699999884,1.0,0.0,0.0,0.0,1.0,0.0,0.0,0.0,1.0,-3.04878044128,-6.64634132385,2.80487799644,1.0,0.0,0.0,0.0,1.0,0.0,0.0,0.0,1.0,3.92170231934,-3.94564433594,8.80587370605,1.0,0.0,0.0,0.0,1.0,0.0,0.0,0.0,1.0
1489584292889761845,60,1489584292885853882,,36.3990402222,-170.351089478,14.3383102417,0.00306500005536,1.0,0.0,0.0,0.0,1.0,0.0,0.0,0.0,1.0,2.19512200356,0.365853667259,-2.62195134163,1.0,0.0,0.0,0.0,1.0,0.0,0.0,0.0,1.0,5.06134230957,-2.80121594238,9.48103915874,1.0,0.0,0.0,0.0,1.0,0.0,0.0,0.0,1.0
1489584292912461133,61,1489584292908977545,,35.9974975586,-170.00642395,14.139298439,0.00278500001878,1.0,0.0,0.0,0.0,1.0,0.0,0.0,0.0,1.0,-4.2682929039,-3.17073178291,2.68292689323,1.0,0.0,0.0,0.0,1.0,0.0,0.0,0.0,1.0,3.55299526367,-4.33350529714,9.53849999858,1.0,0.0,0.0,0.0,1.0,0.0,0.0,0.0,1.0
1489584292932151311,62,1489584292929282670,,36.36353302,-169.232543945,13.7911624908,0.00364200002514,1.0,0.0,0.0,0.0,1.0,0.0,0.0,0.0,1.0,2.19512200356,1.8902438879,-1.2804877758,1.0,0.0,0.0,0.0,1.0,0.0,0.0,0.0,1.0,1.99676418457,-2.60967980957,8.54730051128,1.0,0.0,0.0,0.0,1.0,0.0,0.0,0.0,1.0
1489584292953725185,63,1489584292951135553,,35.9483375549,-169.090820312,13.640827179,0.00317699997686,1.0,0.0,0.0,0.0,1.0,0.0,0.0,0.0,1.0,-2.01219511032,2.62195134163,-1.40243899822,1.0,0.0,0.0,0.0,1.0,0.0,0.0,0.0,1.0,4.04620080566,-3.38061274414,10.1609918457,1.0,0.0,0.0,0.0,1.0,0.0,0.0,0.0,1.0
1489584292976516660,64,1489584292973455988,,35.5871696472,-168.708190918,13.5194387436,0.00359999993816,1.0,0.0,0.0,0.0,1.0,0.0,0.0,0.0,1.0,0.609756112099,2.62195134163,-0.975609779358,1.0,0.0,0.0,0.0,1.0,0.0,0.0,0.0,1.0,6.1530982666,-1.69509477539,7.53215842285,1.0,0.0,0.0,0.0,1.0,0.0,0.0,0.0,1.0
1489584293003399953,65,1489584292995587829,,35.6579475403,-168.110473633,13.4829931259,0.00287900003605,1.0,0.0,0.0,0.0,1.0,0.0,0.0,0.0,1.0,1.09756100178,2.5,-0.731707334518,1.0,0.0,0.0,0.0,1.0,0.0,0.0,0.0,1.0,3.12203896484,-4.12760366211,13.9677724854,1.0,0.0,0.0,0.0,1.0,0.0,0.0,0.0,1.0
1489584293019997271,66,1489584293017433733,,35.6449317932,-167.491653442,13.5689611435,0.00275300000794,1.0,0.0,0.0,0.0,1.0,0.0,0.0,0.0,1.0,-1.09756100178,5.67073154449,0.548780500889,1.0,0.0,0.0,0.0,1.0,0.0,0.0,0.0,1.0,-3.74453139648,-3.32794030762,20.0155258789,1.0,0.0,0.0,0.0,1.0,0.0,0.0,0.0,1.0
1489584293041067083,67,1489584293038516462,,35.6569519043,-167.285339355,13.3767366409,0.00285000004806,1.0,0.0,0.0,0.0,1.0,0.0,0.0,0.0,1.0,1.2804877758,1.52439022064,0.365853667259,1.0,0.0,0.0,0.0,1.0,0.0,0.0,0.0,1.0,-0.138863696289,-2.48039291992,11.0995188965,1.0,0.0,0.0,0.0,1.0,0.0,0.0,0.0,1.0
1489584293067135064,68,1489584293061545228,,35.4183998108,-166.883392334,13.2877473831,0.00514299981296,1.0,0.0,0.0,0.0,1.0,0.0,0.0,0.0,1.0,0.731707334518,1.64634156227,-1.09756100178,1.0,0.0,0.0,0.0,1.0,0.0,0.0,0.0,1.0,2.50433493652,-2.60967980957,8.45631967915,1.0,0.0,0.0,0.0,1.0,0.0,0.0,0.0,1.0
1489584293085805244,69,1489584293083428997,,35.1452636719,-166.700271606,12.9859657288,0.00302299996838,1.0,0.0,0.0,0.0,1.0,0.0,0.0,0.0,1.0,-1.03658533096,1.40243899822,0.487804889679,1.0,0.0,0.0,0.0,1.0,0.0,0.0,0.0,1.0,1.19231249982,-3.40934316406,8.75320126953,1.0,0.0,0.0,0.0,1.0,0.0,0.0,0.0,1.0
1489584293110581195,70,1489584293106736410,,34.9610519409,-166.391082764,12.7857685089,0.00300300004892,1.0,0.0,0.0,0.0,1.0,0.0,0.0,0.0,1.0,-0.792682945728,2.07317066193,1.58536589146,1.0,0.0,0.0,0.0,1.0,0.0,0.0,0.0,1.0,1.43173259277,-2.94486804199,9.74918916016,1.0,0.0,0.0,0.0,1.0,0.0,0.0,0.0,1.0
1489584293135123866,71,1489584293129324656,,34.9871330261,-166.111831665,12.6567745209,0.00438599986956,1.0,0.0,0.0,0.0,1.0,0.0,0.0,0.0,1.0,-2.98780488968,0.609756112099,0.487804889679,1.0,0.0,0.0,0.0,1.0,0.0,0.0,0.0,1.0,1.61369191895,-2.65756384277,9.20809958496,1.0,0.0,0.0,0.0,1.0,0.0,0.0,0.0,1.0
1489584293153113943,72,1489584293150264208,,35.5126190186,-165.169174194,12.6448287964,0.00464899977669,1.0,0.0,0.0,0.0,1.0,0.0,0.0,0.0,1.0,-0.304878056049,-0.304878056049,1.15853655338,1.0,0.0,0.0,0.0,1.0,0.0,0.0,0.0,1.0,0.660799658203,-3.18907661133,8.95431420898,1.0,0.0,0.0,0.0,1.0,0.0,0.0,0.0,1.0
1489584293173829745,73,1489584293171081936,,35.2944908142,-164.921035767,12.4280147552,0.00333600002341,1.0,0.0,0.0,0.0,1.0,0.0,0.0,0.0,1.0,-0.12195122242,-2.19512200356,0.609756112099,1.0,0.0,0.0,0.0,1.0,0.0,0.0,0.0,1.0,1.66157595215,-3.11725056152,9.62469125835,1.0,0.0,0.0,0.0,1.0,0.0,0.0,0.0,1.0
1489584293194672057,74,1489584293191895759,,35.5379829407,-164.525421143,12.3116292953,0.00362300011329,1.0,0.0,0.0,0.0,1.0,0.0,0.0,0.0,1.0,-0.304878056049,0.670731723309,1.03658533096,1.0,0.0,0.0,0.0,1.0,0.0,0.0,0.0,1.0,1.49398183594,-2.98317526855,9.09796630859,1.0,0.0,0.0,0.0,1.0,0.0,0.0,0.0,1.0
1489584293219346082,75,1489584293215651921,,35.5873336792,-163.906387329,11.7972011566,0.00342900003307,1.0,0.0,0.0,0.0,1.0,0.0,0.0,0.0,1.0,0.243902444839,0.670731723309,-0.365853667259,1.0,0.0,0.0,0.0,1.0,0.0,0.0,0.0,1.0,1.96803376465,-3.18907661133,10.0221281494,1.0,0.0,0.0,0.0,1.0,0.0,0.0,0.0,1.0
1489584293241748391,76,1489584293238118032,,35.8103637695,-163.403793335,11.8027982712,0.00307899992913,1.0,0.0,0.0,0.0,1.0,0.0,0.0,0.0,1.0,0.12195122242,2.56097555161,-0.609756112099,1.0,0.0,0.0,0.0,1.0,0.0,0.0,0.0,1.0,1.01514150391,-3.4428619873,10.6254669678,1.0,0.0,0.0,0.0,1.0,0.0,0.0,0.0,1.0
1489584293263364869,77,1489584293260472008,,35.3554954529,-163.163665771,11.4671936035,0.00308299995959,1.0,0.0,0.0,0.0,1.0,0.0,0.0,0.0,1.0,0.365853667259,3.47560977936,-0.548780500889,1.0,0.0,0.0,0.0,1.0,0.0,0.0,0.0,1.0,1.87705410156,-3.00232888184,9.70130512695,1.0,0.0,0.0,0.0,1.0,0.0,0.0,0.0,1.0
1489584293286915145,78,1489584293282569527,,35.603969574,-162.316146851,11.5770215988,0.00298499991186,1.0,0.0,0.0,0.0,1.0,0.0,0.0,0.0,1.0,-0.365853667259,3.90243911743,-1.34146344662,1.0,0.0,0.0,0.0,1.0,0.0,0.0,0.0,1.0,1.11090957031,-3.27047946777,10.4147772217,1.0,0.0,0.0,0.0,1.0,0.0,0.0,0.0,1.0
1489584293310333130,79,1489584293304591941,,35.7917480469,-161.807296753,11.5554704666,0.00256299995817,1.0,0.0,0.0,0.0,1.0,0.0,0.0,0.0,1.0,1.76829278469,3.71951246262,-0.304878056049,1.0,0.0,0.0,0.0,1.0,0.0,0.0,0.0,1.0,1.20188930646,-2.53306535645,9.10275471191,1.0,0.0,0.0,0.0,1.0,0.0,0.0,0.0,1.0
1489584293333982000,80,1489584293327880291,,35.4559135437,-161.6925354,11.2857370377,0.00347999995574,1.0,0.0,0.0,0.0,1.0,0.0,0.0,0.0,1.0,-1.34146344662,3.84146332741,-0.975609779358,1.0,0.0,0.0,0.0,1.0,0.0,0.0,0.0,1.0,1.37427175293,-2.87783039551,9.95509050293,1.0,0.0,0.0,0.0,1.0,0.0,0.0,0.0,1.0
1489584293351584578,81,1489584293349534633,,34.786113739,-161.510772705,10.9930715561,0.00354800000787,1.0,0.0,0.0,0.0,1.0,0.0,0.0,0.0,1.0,-0.243902444839,2.56097555161,-2.68292689323,1.0,0.0,0.0,0.0,1.0,0.0,0.0,0.0,1.0,2.03985981445,-3.52905324707,9.64384487163,1.0,0.0,0.0,0.0,1.0,0.0,0.0,0.0,1.0
1489584293373112514,82,1489584293369910383,,34.1436195374,-161.273498535,10.6683387756,0.00333199999295,1.0,0.0,0.0,0.0,1.0,0.0,0.0,0.0,1.0,-0.609756112099,3.04878044128,-0.426829278469,1.0,0.0,0.0,0.0,1.0,0.0,0.0,0.0,1.0,1.838746875,-2.98317526855,9.46188437642,1.0,0.0,0.0,0.0,1.0,0.0,0.0,0.0,1.0
1489584293395561021,83,1489584293392506703,,33.5839233398,-160.92767334,10.2690563202,0.00295999995433,1.0,0.0,0.0,0.0,1.0,0.0,0.0,0.0,1.0,-0.731707334518,2.07317066193,-0.487804889679,1.0,0.0,0.0,0.0,1.0,0.0,0.0,0.0,1.0,1.69509477539,-3.44765039062,9.27034882812,1.0,0.0,0.0,0.0,1.0,0.0,0.0,0.0,1.0
1489584293417161092,84,1489584293413858337,,33.617275238,-160.189880371,9.76351547241,0.00294400006533,1.0,0.0,0.0,0.0,1.0,0.0,0.0,0.0,1.0,3.47560977936,-5.91463422775,7.86585378647,1.0,0.0,0.0,0.0,1.0,0.0,0.0,0.0,1.0,5.1379567627,0.794874951172,14.6525141602,1.0,0.0,0.0,0.0,1.0,0.0,0.0,0.0,1.0
1489584293437661113,85,1489584293435914397,,33.7114448547,-159.448852539,9.77893066406,0.00298100011423,1.0,0.0,0.0,0.0,1.0,0.0,0.0,0.0,1.0,7.62195110321,-10.9756097794,10.6707315445,1.0,0.0,0.0,0.0,1.0,0.0,0.0,0.0,1.0,0.076614453125,0.258573779297,15.337255835,1.0,0.0,0.0,0.0,1.0,0.0,0.0,0.0,1.0
1489584293459786600,86,1489584293457066136,,33.7860107422,-158.733886719,9.86789417267,0.00277199991979,1.0,0.0,0.0,0.0,1.0,0.0,0.0,0.0,1.0,10.3658542633,8.10975551605,-4.32926845551,1.0,0.0,0.0,0.0,1.0,0.0,0.0,0.0,1.0,0.143652099609,-2.07816689489,9.71567033691,1.0,0.0,0.0,0.0,1.0,0.0,0.0,0.0,1.0
1489584293482364847,87,1489584293478948081,,33.5447120667,-158.258056641,9.68226337433,0.00268799997866,1.0,0.0,0.0,0.0,1.0,0.0,0.0,0.0,1.0,-2.25609779358,-0.12195122242,2.80487799644,1.0,0.0,0.0,0.0,1.0,0.0,0.0,0.0,1.0,1.99197578125,-3.35667072754,11.3245738525,1.0,0.0,0.0,0.0,1.0,0.0,0.0,0.0,1.0
1489584293503547471,88,1489584293499953987,,33.7759590149,-157.200180054,9.83367061615,0.00372199993581,1.0,0.0,0.0,0.0,1.0,0.0,0.0,0.0,1.0,1.34146344662,0.0609756112099,0.304878056049,1.0,0.0,0.0,0.0,1.0,0.0,0.0,0.0,1.0,1.37906015625,-3.55299526367,8.27914934082,1.0,0.0,0.0,0.0,1.0,0.0,0.0,0.0,1.0
1489584293531753678,89,1489584293522533640,,33.4735450745,-156.682540894,9.80043315887,0.00265699997544,1.0,0.0,0.0,0.0,1.0,0.0,0.0,0.0,1.0,1.03658533096,2.13414645195,-0.426829278469,1.0,0.0,0.0,0.0,1.0,0.0,0.0,0.0,1.0,2.92571442871,-2.85388837891,9.14106193848,1.0,0.0,0.0,0.0,1.0,0.0,0.0,0.0,1.0
1489584293549211933,90,1489584293543765430,,33.5809822083,-156.041992188,9.73695278168,0.00323699996807,1.0,0.0,0.0,0.0,1.0,0.0,0.0,0.0,1.0,0.670731723309,1.40243899822,-1.2195122242,1.0,0.0,0.0,0.0,1.0,0.0,0.0,0.0,1.0,2.07337849156,-2.21224233398,11.2144405762,1.0,0.0,0.0,0.0,1.0,0.0,0.0,0.0,1.0
1489584293569326850,91,1489584293564616597,,33.8524856567,-155.254272461,9.79603767395,0.00365999992937,1.0,0.0,0.0,0.0,1.0,0.0,0.0,0.0,1.0,-1.2195122242,3.59756112099,-0.243902444839,1.0,0.0,0.0,0.0,1.0,0.0,0.0,0.0,1.0,-0.0478840332031,-2.61446821289,11.3054202393,1.0,0.0,0.0,0.0,1.0,0.0,0.0,0.0,1.0
1489584293590788692,92,1489584293586543699,,33.6423110962,-154.841110229,9.73589992523,0.00298699992709,1.0,0.0,0.0,0.0,1.0,0.0,0.0,0.0,1.0,-1.95121955872,2.86585378647,-0.731707334518,1.0,0.0,0.0,0.0,1.0,0.0,0.0,0.0,1.0,-0.636857641602,-2.54264216309,12.2008516602,1.0,0.0,0.0,0.0,1.0,0.0,0.0,0.0,1.0
1489584293613715480,93,1489584293609477466,,34.1396179199,-153.759658813,9.89879894257,0.00282700010575,1.0,0.0,0.0,0.0,1.0,0.0,0.0,0.0,1.0,-0.914634168148,2.43902444839,1.2195122242,1.0,0.0,0.0,0.0,1.0,0.0,0.0,0.0,1.0,1.51313544922,-2.12605122035,8.58081933452,1.0,0.0,0.0,0.0,1.0,0.0,0.0,0.0,1.0
1489584293634579406,94,1489584293631448005,,34.1895294189,-153.075820923,9.85966682434,0.00379900005646,1.0,0.0,0.0,0.0,1.0,0.0,0.0,0.0,1.0,0.365853667259,2.43902444839,1.58536589146,1.0,0.0,0.0,0.0,1.0,0.0,0.0,0.0,1.0,1.19710090314,0.00957680664062,11.8943938477,1.0,0.0,0.0,0.0,1.0,0.0,0.0,0.0,1.0
1489584293657315466,95,1489584293653852502,,33.9299545288,-152.51991272,9.55244636536,0.00331500009634,1.0,0.0,0.0,0.0,1.0,0.0,0.0,0.0,1.0,-1.95121955872,3.71951246262,0.304878056049,1.0,0.0,0.0,0.0,1.0,0.0,0.0,0.0,1.0,2.9927520752,-1.66157595215,9.30865547017,1.0,0.0,0.0,0.0,1.0,0.0,0.0,0.0,1.0
1489584293679954702,96,1489584293676079291,,34.2682037354,-151.475234985,9.71896457672,0.00309800007381,1.0,0.0,0.0,0.0,1.0,0.0,0.0,0.0,1.0,-1.8902438879,1.52439022064,1.40243899822,1.0,0.0,0.0,0.0,1.0,0.0,0.0,0.0,1.0,1.84832368164,-4.08929643555,12.1625444336,1.0,0.0,0.0,0.0,1.0,0.0,0.0,0.0,1.0
1489584293702941177,97,1489584293699294985,,34.1957931519,-150.553482056,9.90625286102,0.00324200000614,1.0,0.0,0.0,0.0,1.0,0.0,0.0,0.0,1.0,-0.304878056049,1.2804877758,2.74390244484,1.0,0.0,0.0,0.0,1.0,0.0,0.0,0.0,1.0,1.7908628418,-3.30399829102,7.72369455566,1.0,0.0,0.0,0.0,1.0,0.0,0.0,0.0,1.0
1489584293728696919,98,1489584293721402243,,34.2547531128,-149.768051147,10.0538425446,0.00277499994263,1.0,0.0,0.0,0.0,1.0,0.0,0.0,0.0,1.0,0.0,0.0,-0.18292683363,1.0,0.0,0.0,0.0,1.0,0.0,0.0,0.0,1.0,2.79642753906,-2.82036955566,10.5344873047,1.0,0.0,0.0,0.0,1.0,0.0,0.0,0.0,1.0
1489584293749665689,99,1489584293744350072,,34.2966537476,-149.191680908,9.73408508301,0.00267200008966,1.0,0.0,0.0,0.0,1.0,0.0,0.0,0.0,1.0,-0.365853667259,0.792682945728,0.853658556938,1.0,0.0,0.0,0.0,1.0,0.0,0.0,0.0,1.0,2.74375510254,-3.15555778809,7.80988581543,1.0,0.0,0.0,0.0,1.0,0.0,0.0,0.0,1.0
1489584293772526279,100,1489584293767213423,,34.2953605652,-148.458358765,9.63352870941,0.00331700011156,1.0,0.0,0.0,0.0,1.0,0.0,0.0,0.0,1.0,2.13414645195,0.426829278469,-0.426829278469,1.0,0.0,0.0,0.0,1.0,0.0,0.0,0.0,1.0,2.24576115723,-2.7581203125,10.1945106689,1.0,0.0,0.0,0.0,1.0,0.0,0.0,0.0,1.0
1489584293792959113,101,1489584293790270211,,34.330947876,-147.392120361,9.9452419281,0.00304499990307,1.0,0.0,0.0,0.0,1.0,0.0,0.0,0.0,1.0,-0.914634168148,0.243902444839,-1.2804877758,1.0,0.0,0.0,0.0,1.0,0.0,0.0,0.0,1.0,2.24097275391,-3.77326181641,7.61834968262,1.0,0.0,0.0,0.0,1.0,0.0,0.0,0.0,1.0
1489584293817966106,102,1489584293813755748,,34.1268348694,-146.681259155,9.61292743683,0.00384899997152,1.0,0.0,0.0,0.0,1.0,0.0,0.0,0.0,1.0,-0.914634168148,2.92682933807,1.76829278469,1.0,0.0,0.0,0.0,1.0,0.0,0.0,0.0,1.0,0.785298144531,-3.64876333008,10.1514150391,1.0,0.0,0.0,0.0,1.0,0.0,0.0,0.0,1.0
1489584293840830915,103,1489584293839021543,,34.2588768005,-145.753799438,9.45814704895,0.0117769995704,1.0,0.0,0.0,0.0,1.0,0.0,0.0,0.0,1.0,-0.12195122242,2.74390244484,-0.609756112099,1.0,0.0,0.0,0.0,1.0,0.0,0.0,0.0,1.0,1.70945998535,-3.08373173828,9.2942902602,1.0,0.0,0.0,0.0,1.0,0.0,0.0,0.0,1.0
1489584293860791718,104,1489584293859179220,,33.7752151489,-145.422622681,9.00549411774,0.0031429999508,1.0,0.0,0.0,0.0,1.0,0.0,0.0,0.0,1.0,0.0609756112099,4.57317066193,-1.34146344662,1.0,0.0,0.0,0.0,1.0,0.0,0.0,0.0,1.0,2.03985981445,-2.92571442871,9.34217429341,1.0,0.0,0.0,0.0,1.0,0.0,0.0,0.0,1.0
1489584293881171530,105,1489584293879467887,,33.6960105896,-144.359634399,9.01167964935,0.00400400022045,1.0,0.0,0.0,0.0,1.0,0.0,0.0,0.0,1.0,0.487804889679,3.35365867615,-2.13414645195,1.0,0.0,0.0,0.0,1.0,0.0,0.0,0.0,1.0,2.27927998047,-3.34230551758,9.5432884019,1.0,0.0,0.0,0.0,1.0,0.0,0.0,0.0,1.0
1489584293903980975,106,1489584293902593998,,33.8031768799,-143.269683838,9.57505607605,0.00346600008197,1.0,0.0,0.0,0.0,1.0,0.0,0.0,0.0,1.0,-0.304878056049,4.45121955872,-1.40243899822,1.0,0.0,0.0,0.0,1.0,0.0,0.0,0.0,1.0,2.14999323695,-2.97359846191,9.31823227681,1.0,0.0,0.0,0.0,1.0,0.0,0.0,0.0,1.0
1489584293923686257,107,1489584293921910114,,33.8686408997,-142.568084717,9.478099823,0.00378399994224,1.0,0.0,0.0,0.0,1.0,0.0,0.0,0.0,1.0,-0.487804889679,3.59756112099,-0.670731723309,1.0,0.0,0.0,0.0,1.0,0.0,0.0,0.0,1.0,1.73340200195,-3.09809694824,8.84896933594,1.0,0.0,0.0,0.0,1.0,0.0,0.0,0.0,1.0
1489584293949804394,108,1489584293942791697,,33.6319236755,-142.197341919,9.06603717804,0.00258200010285,1.0,0.0,0.0,0.0,1.0,0.0,0.0,0.0,1.0,-0.304878056049,3.53658556938,-0.365853667259,1.0,0.0,0.0,0.0,1.0,0.0,0.0,0.0,1.0,1.5562310791,-3.07415493164,9.50498117534,1.0,0.0,0.0,0.0,1.0,0.0,0.0,0.0,1.0
1489584293965434839,109,1489584293963942915,,33.1245918274,-141.845596313,8.51008033752,0.00248900009319,1.0,0.0,0.0,0.0,1.0,0.0,0.0,0.0,1.0,0.0609756112099,2.92682933807,0.18292683363,1.0,0.0,0.0,0.0,1.0,0.0,0.0,0.0,1.0,1.90578452148,-3.33751711426,9.38526992329,1.0,0.0,0.0,0.0,1.0,0.0,0.0,0.0,1.0
1489584293987635274,110,1489584293986539755,,32.5616569519,-141.448562622,7.93499422073,0.00240599992685,1.0,0.0,0.0,0.0,1.0,0.0,0.0,0.0,1.0,-0.365853667259,2.62195134163,0.12195122242,1.0,0.0,0.0,0.0,1.0,0.0,0.0,0.0,1.0,1.84353527832,-3.20344182129,9.62947966167,1.0,0.0,0.0,0.0,1.0,0.0,0.0,0.0,1.0
1489584294008333628,111,1489584294006737172,,32.0814704895,-141.086257935,7.38954544067,0.00242400006391,1.0,0.0,0.0,0.0,1.0,0.0,0.0,0.0,1.0,-0.548780500889,1.76829278469,0.426829278469,1.0,0.0,0.0,0.0,1.0,0.0,0.0,0.0,1.0,1.81959326172,-3.17471140137,9.44273076313,1.0,0.0,0.0,0.0,1.0,0.0,0.0,0.0,1.0
1489584294041704410,112,1489584294035628691,,31.4649581909,-140.593551636,6.65329885483,0.00909900013357,1.0,0.0,0.0,0.0,1.0,0.0,0.0,0.0,1.0,-0.548780500889,1.58536589146,0.670731723309,1.0,0.0,0.0,0.0,1.0,0.0,0.0,0.0,1.0,1.70945998535,-3.064578125,9.46667277974,1.0,0.0,0.0,0.0,1.0,0.0,0.0,0.0,1.0
1489584294058232562,113,1489584294056810325,,30.9669971466,-140.183135986,6.08981609344,0.00586999999359,1.0,0.0,0.0,0.0,1.0,0.0,0.0,0.0,1.0,-0.304878056049,0.914634168148,0.609756112099,1.0,0.0,0.0,0.0,1.0,0.0,0.0,0.0,1.0,1.86747729492,-3.10767375488,9.57680722515,1.0,0.0,0.0,0.0,1.0,0.0,0.0,0.0,1.0
1489584294084336377,114,1489584294078273261,,30.4956016541,-139.760910034,5.52233505249,0.00309500005096,1.0,0.0,0.0,0.0,1.0,0.0,0.0,0.0,1.0,-0.0609756112099,0.18292683363,1.09756100178,1.0,0.0,0.0,0.0,1.0,0.0,0.0,0.0,1.0,1.84353527832,-3.12203896484,9.50976957866,1.0,0.0,0.0,0.0,1.0,0.0,0.0,0.0,1.0
1489584294101001716,115,1489584294099401041,,30.0363578796,-139.317337036,4.95465087891,0.00353899993934,1.0,0.0,0.0,0.0,1.0,0.0,0.0,0.0,1.0,-0.243902444839,0.0609756112099,1.2195122242,1.0,0.0,0.0,0.0,1.0,0.0,0.0,0.0,1.0,1.77649763184,-3.08373173828,9.59117243511,1.0,0.0,0.0,0.0,1.0,0.0,0.0,0.0,1.0
1489584294124288243,116,1489584294121886319,,29.549861908,-138.834793091,4.3680973053,0.00288000004366,1.0,0.0,0.0,0.0,1.0,0.0,0.0,0.0,1.0,0.487804889679,-0.0609756112099,0.914634168148,1.0,0.0,0.0,0.0,1.0,0.0,0.0,0.0,1.0,1.82917006836,-3.20823022461,9.52892319194,1.0,0.0,0.0,0.0,1.0,0.0,0.0,0.0,1.0
1489584294144293369,117,1489584294142675715,,29.0790634155,-138.355224609,3.80451607704,0.00305199995637,1.0,0.0,0.0,0.0,1.0,0.0,0.0,0.0,1.0,0.12195122242,0.304878056049,0.792682945728,1.0,0.0,0.0,0.0,1.0,0.0,0.0,0.0,1.0,1.89141931152,-3.14119257812,9.52413478862,1.0,0.0,0.0,0.0,1.0,0.0,0.0,0.0,1.0
1489584294169207497,118,1489584294168001562,,28.5303268433,-137.801559448,3.14065694809,0.00372799998149,1.0,0.0,0.0,0.0,1.0,0.0,0.0,0.0,1.0,0.304878056049,1.03658533096,0.0,1.0,0.0,0.0,0.0,1.0,0.0,0.0,0.0,1.0,2.01112939453,-3.16992299805,9.43794235981,1.0,0.0,0.0,0.0,1.0,0.0,0.0,0.0,1.0
1489584294193284388,119,1489584294188994915,,27.9732818604,-137.288635254,2.52795863152,0.00288600008935,1.0,0.0,0.0,0.0,1.0,0.0,0.0,0.0,1.0,0.18292683363,2.13414645195,-0.670731723309,1.0,0.0,0.0,0.0,1.0,0.0,0.0,0.0,1.0,1.81959326172,-3.00711728516,9.5193463853,1.0,0.0,0.0,0.0,1.0,0.0,0.0,0.0,1.0
1489584294213889564,120,1489584294211124517,,27.4247436523,-136.798477173,1.94438660145,0.00267999991775,1.0,0.0,0.0,0.0,1.0,0.0,0.0,0.0,1.0,-0.12195122242,3.35365867615,-1.64634156227,1.0,0.0,0.0,0.0,1.0,0.0,0.0,0.0,1.0,1.96324536133,-3.10767375488,9.50498117534,1.0,0.0,0.0,0.0,1.0,0.0,0.0,0.0,1.0
1489584294237302133,121,1489584294234296877,,26.7908840179,-136.263778687,1.3016512394,0.00369299994782,1.0,0.0,0.0,0.0,1.0,0.0,0.0,0.0,1.0,0.243902444839,4.45121955872,-2.19512200356,1.0,0.0,0.0,0.0,1.0,0.0,0.0,0.0,1.0,2.14520483363,-3.06936652832,9.48582756206,1.0,0.0,0.0,0.0,1.0,0.0,0.0,0.0,1.0
1489584294258501840,122,1489584294255389710,,26.1227912903,-135.702804565,0.628571867943,0.00382700003684,1.0,0.0,0.0,0.0,1.0,0.0,0.0,0.0,1.0,0.365853667259,5.54878091812,-2.25609779358,1.0,0.0,0.0,0.0,1.0,0.0,0.0,0.0,1.0,1.83395847168,-3.16992299805,9.39484672993,1.0,0.0,0.0,0.0,1.0,0.0,0.0,0.0,1.0
1489584294279614933,123,1489584294277079312,,25.4851398468,-135.13168335,-0.0523761175573,0.00364800007083,1.0,0.0,0.0,0.0,1.0,0.0,0.0,0.0,1.0,0.0,5.48780488968,-2.74390244484,1.0,0.0,0.0,0.0,1.0,0.0,0.0,0.0,1.0,1.81959326172,-3.07894333496,9.61032604839,1.0,0.0,0.0,0.0,1.0,0.0,0.0,0.0,1.0
1489584294300577349,124,1489584294297518604,,24.8875007629,-134.591644287,-0.699456453323,0.00377500010654,1.0,0.0,0.0,0.0,1.0,0.0,0.0,0.0,1.0,0.426829278469,6.09756088257,-2.13414645195,1.0,0.0,0.0,0.0,1.0,0.0,0.0,0.0,1.0,1.77170922852,-3.11725056152,9.47146118306,1.0,0.0,0.0,0.0,1.0,0.0,0.0,0.0,1.0
1489584294323480179,125,1489584294320312579,,24.2407188416,-133.961532593,-1.42281758785,0.00306200003251,1.0,0.0,0.0,0.0,1.0,0.0,0.0,0.0,1.0,0.365853667259,4.75609779358,-1.8902438879,1.0,0.0,0.0,0.0,1.0,0.0,0.0,0.0,1.0,1.9105729248,-3.16513459473,9.54807680523,1.0,0.0,0.0,0.0,1.0,0.0,0.0,0.0,1.0
1489584294344567855,126,1489584294342007546,,23.6597690582,-133.350708008,-2.1029381752,0.00388600002043,1.0,0.0,0.0,0.0,1.0,0.0,0.0,0.0,1.0,0.365853667259,4.45121955872,-1.46341466904,1.0,0.0,0.0,0.0,1.0,0.0,0.0,0.0,1.0,1.77649763184,-3.26090266113,9.44751916645,1.0,0.0,0.0,0.0,1.0,0.0,0.0,0.0,1.0
1489584294373708487,127,1489584294363995221,,23.0951042175,-132.702713013,-2.8084564209,0.00267899991013,1.0,0.0,0.0,0.0,1.0,0.0,0.0,0.0,1.0,0.365853667259,3.17073178291,-0.670731723309,1.0,0.0,0.0,0.0,1.0,0.0,0.0,0.0,1.0,1.66636435547,-2.97359846191,9.55765361187,1.0,0.0,0.0,0.0,1.0,0.0,0.0,0.0,1.0
1489584294393486113,128,1489584294384482794,,22.5855808258,-132.070037842,-3.4759914875,0.00262199994177,1.0,0.0,0.0,0.0,1.0,0.0,0.0,0.0,1.0,0.365853667259,2.56097555161,-0.304878056049,1.0,0.0,0.0,0.0,1.0,0.0,0.0,0.0,1.0,1.6041151123,-3.01190568848,9.44273076313,1.0,0.0,0.0,0.0,1.0,0.0,0.0,0.0,1.0
1489584294411819627,129,1489584294406913958,,22.0440483093,-131.389678955,-4.19080543518,0.00256199995056,1.0,0.0,0.0,0.0,1.0,0.0,0.0,0.0,1.0,0.0609756112099,2.13414645195,-0.426829278469,1.0,0.0,0.0,0.0,1.0,0.0,0.0,0.0,1.0,1.98718737793,-3.20823022461,9.58638403179,1.0,0.0,0.0,0.0,1.0,0.0,0.0,0.0,1.0
1489584294437104849,130,1489584294430952046,,21.4711856842,-130.636962891,-4.97559404373,0.00332899997011,1.0,0.0,0.0,0.0,1.0,0.0,0.0,0.0,1.0,-0.0609756112099,2.74390244484,-0.18292683363,1.0,0.0,0.0,0.0,1.0,0.0,0.0,0.0,1.0,1.92493813477,-3.10767375488,9.47624958638,1.0,0.0,0.0,0.0,1.0,0.0,0.0,0.0,1.0
1489584294456295341,131,1489584294453734511,,20.9505729675,-129.941894531,-5.68580722809,0.00295599992387,1.0,0.0,0.0,0.0,1.0,0.0,0.0,0.0,1.0,0.0,2.25609779358,-0.548780500889,1.0,0.0,0.0,0.0,1.0,0.0,0.0,0.0,1.0,1.76213242187,-3.05021291504,9.38526992329,1.0,0.0,0.0,0.0,1.0,0.0,0.0,0.0,1.0
1489584294477844318,132,1489584294475527603,,20.415096283,-129.190368652,-6.42622852325,0.00424000015482,1.0,0.0,0.0,0.0,1.0,0.0,0.0,0.0,1.0,-0.304878056049,1.8292683363,-0.18292683363,1.0,0.0,0.0,0.0,1.0,0.0,0.0,0.0,1.0,1.71424838867,-3.13161577148,9.47146118306,1.0,0.0,0.0,0.0,1.0,0.0,0.0,0.0,1.0
1489584294499839857,133,1489584294497628767,,19.8835983276,-128.390151978,-7.185546875,0.00465800007805,1.0,0.0,0.0,0.0,1.0,0.0,0.0,0.0,1.0,0.304878056049,1.58536589146,-0.365853667259,1.0,0.0,0.0,0.0,1.0,0.0,0.0,0.0,1.0,1.77649763184,-3.21301862793,9.4954043687,1.0,0.0,0.0,0.0,1.0,0.0,0.0,0.0,1.0
1489584294521314773,134,1489584294519146807,,19.3691978455,-127.590965271,-7.93636608124,0.00311199994758,1.0,0.0,0.0,0.0,1.0,0.0,0.0,0.0,1.0,0.426829278469,2.31707310677,-0.0609756112099,1.0,0.0,0.0,0.0,1.0,0.0,0.0,0.0,1.0,1.85311208496,-3.23217224121,9.38048151997,1.0,0.0,0.0,0.0,1.0,0.0,0.0,0.0,1.0
1489584294542375782,135,1489584294540246410,,18.8847446442,-126.80443573,-8.67285633087,0.00469599990174,1.0,0.0,0.0,0.0,1.0,0.0,0.0,0.0,1.0,0.487804889679,2.56097555161,-0.426829278469,1.0,0.0,0.0,0.0,1.0,0.0,0.0,0.0,1.0,1.81001645508,-3.04542451172,9.58638403179,1.0,0.0,0.0,0.0,1.0,0.0,0.0,0.0,1.0
1489584294563429865,136,1489584294561115389,,18.3819446564,-126.018325806,-9.39459705353,0.00264200009406,1.0,0.0,0.0,0.0,1.0,0.0,0.0,0.0,1.0,0.548780500889,2.68292689323,-1.09756100178,1.0,0.0,0.0,0.0,1.0,0.0,0.0,0.0,1.0,2.06380183105,-3.04542451172,9.5193463853,1.0,0.0,0.0,0.0,1.0,0.0,0.0,0.0,1.0
1489584294585797487,137,1489584294583506084,,17.8698387146,-125.16532135,-10.1844987869,0.00309400004335,1.0,0.0,0.0,0.0,1.0,0.0,0.0,0.0,1.0,0.243902444839,3.41463422775,-0.731707334518,1.0,0.0,0.0,0.0,1.0,0.0,0.0,0.0,1.0,1.89141931152,-2.87783039551,9.55765361187,1.0,0.0,0.0,0.0,1.0,0.0,0.0,0.0,1.0
1489584294605308395,138,1489584294603734491,,17.3935031891,-124.327941895,-10.9272184372,0.00240899994969,1.0,0.0,0.0,0.0,1.0,0.0,0.0,0.0,1.0,0.853658556938,3.23170733452,-1.15853655338,1.0,0.0,0.0,0.0,1.0,0.0,0.0,0.0,1.0,1.73340200195,-3.03584770508,9.68693991699,1.0,0.0,0.0,0.0,1.0,0.0,0.0,0.0,1.0
1489584294636075327,139,1489584294634714756,,16.9024429321,-123.444946289,-11.7190303802,0.00243799993768,1.0,0.0,0.0,0.0,1.0,0.0,0.0,0.0,1.0,0.487804889679,3.71951246262,-1.2804877758,1.0,0.0,0.0,0.0,1.0,0.0,0.0,0.0,1.0,1.79565124512,-3.03584770508,9.69651672363,1.0,0.0,0.0,0.0,1.0,0.0,0.0,0.0,1.0
1489584294650391607,140,1489584294648698328,,16.3646087646,-122.523895264,-12.5369253159,0.00366299995221,1.0,0.0,0.0,0.0,1.0,0.0,0.0,0.0,1.0,0.365853667259,3.47560977936,-1.2195122242,1.0,0.0,0.0,0.0,1.0,0.0,0.0,0.0,1.0,1.71903679199,-2.99754047852,9.56723041851,1.0,0.0,0.0,0.0,1.0,0.0,0.0,0.0,1.0
1489584294675047038,141,1489584294673756884,,15.8386297226,-121.515060425,-13.4140644073,0.00388700002804,1.0,0.0,0.0,0.0,1.0,0.0,0.0,0.0,1.0,-0.304878056049,3.23170733452,-1.03658533096,1.0,0.0,0.0,0.0,1.0,0.0,0.0,0.0,1.0,1.71903679199,-3.0885201416,9.55286520855,1.0,0.0,0.0,0.0,1.0,0.0,0.0,0.0,1.0
1489584294695561017,142,1489584294694156749,,15.4251098633,-120.611824036,-14.1842460632,0.00379800004885,1.0,0.0,0.0,0.0,1.0,0.0,0.0,0.0,1.0,0.0609756112099,4.08536577225,0.0,1.0,0.0,0.0,0.0,1.0,0.0,0.0,0.0,1.0,1.76213242187,-3.05021291504,9.62947966167,1.0,0.0,0.0,0.0,1.0,0.0,0.0,0.0,1.0
1489584294714548488,143,1489584294713345730,,15.0100641251,-119.682868958,-14.9834270477,0.00404499983415,1.0,0.0,0.0,0.0,1.0,0.0,0.0,0.0,1.0,-0.0609756112099,1.8902438879,0.12195122242,1.0,0.0,0.0,0.0,1.0,0.0,0.0,0.0,1.0,1.66636435547,-2.9927520752,9.43315395649,1.0,0.0,0.0,0.0,1.0,0.0,0.0,0.0,1.0
1489584294738746733,144,1489584294736943662,,14.5680656433,-118.594535828,-15.8360271454,0.00339299999177,1.0,0.0,0.0,0.0,1.0,0.0,0.0,0.0,1.0,-0.0609756112099,0.670731723309,0.853658556938,1.0,0.0,0.0,0.0,1.0,0.0,0.0,0.0,1.0,1.86747729492,-3.06936652832,9.42357714985,1.0,0.0,0.0,0.0,1.0,0.0,0.0,0.0,1.0
1489584294762969873,145,1489584294760126700,,14.1661081314,-117.517425537,-16.671628952,0.00280099990778,1.0,0.0,0.0,0.0,1.0,0.0,0.0,0.0,1.0,0.304878056049,0.365853667259,1.15853655338,1.0,0.0,0.0,0.0,1.0,0.0,0.0,0.0,1.0,1.68551796875,-3.14119257812,9.52413478862,1.0,0.0,0.0,0.0,1.0,0.0,0.0,0.0,1.0
1489584294784695777,146,1489584294782450728,,13.807009697,-116.471549988,-17.4483261108,0.0035069999285,1.0,0.0,0.0,0.0,1.0,0.0,0.0,0.0,1.0,0.365853667259,0.548780500889,1.58536589146,1.0,0.0,0.0,0.0,1.0,0.0,0.0,0.0,1.0,1.99676418457,-3.28484467773,9.49061596538,1.0,0.0,0.0,0.0,1.0,0.0,0.0,0.0,1.0
1489584294806709962,147,1489584294805122517,,13.4213809967,-115.364776611,-18.2539348602,0.00288100005127,1.0,0.0,0.0,0.0,1.0,0.0,0.0,0.0,1.0,0.12195122242,-0.0609756112099,1.03658533096,1.0,0.0,0.0,0.0,1.0,0.0,0.0,0.0,1.0,1.92493813477,-3.1364041748,9.52892319194,1.0,0.0,0.0,0.0,1.0,0.0,0.0,0.0,1.0
1489584294837696686,148,1489584294836053824,,12.9252557755,-113.886413574,-19.341758728,0.00979399960488,1.0,0.0,0.0,0.0,1.0,0.0,0.0,0.0,1.0,0.0609756112099,1.76829278469,0.853658556938,1.0,0.0,0.0,0.0,1.0,0.0,0.0,0.0,1.0,1.95366855469,-3.16513459473,9.39963513325,1.0,0.0,0.0,0.0,1.0,0.0,0.0,0.0,1.0
1489584294857340666,149,1489584294855779106,,12.557135582,-112.82093811,-20.1177349091,0.00607899995521,1.0,0.0,0.0,0.0,1.0,0.0,0.0,0.0,1.0,0.18292683363,2.62195134163,-0.487804889679,1.0,0.0,0.0,0.0,1.0,0.0,0.0,0.0,1.0,2.00155258789,-2.98796367187,9.55765361187,1.0,0.0,0.0,0.0,1.0,0.0,0.0,0.0,1.0
1489584294880510371,150,1489584294879166414,,12.1509943008,-111.666061401,-20.9800205231,0.00323799997568,1.0,0.0,0.0,0.0,1.0,0.0,0.0,0.0,1.0,-0.0609756112099,4.45121955872,-0.731707334518,1.0,0.0,0.0,0.0,1.0,0.0,0.0,0.0,1.0,1.94888015137,-3.03105930176,9.60074924175,1.0,0.0,0.0,0.0,1.0,0.0,0.0,0.0,1.0
1489584294905129239,151,1489584294903762314,,11.7167472839,-110.424468994,-21.9015827179,0.0041490001604,1.0,0.0,0.0,0.0,1.0,0.0,0.0,0.0,1.0,-0.0609756112099,4.87804889679,-1.46341466904,1.0,0.0,0.0,0.0,1.0,0.0,0.0,0.0,1.0,1.93930334473,-3.1124621582,9.49061596538,1.0,0.0,0.0,0.0,1.0,0.0,0.0,0.0,1.0
1489584294935589193,152,1489584294924624730,,11.3411693573,-109.289237976,-22.742805481,0.00252699991688,1.0,0.0,0.0,0.0,1.0,0.0,0.0,0.0,1.0,-0.12195122242,5.0,-1.58536589146,1.0,0.0,0.0,0.0,1.0,0.0,0.0,0.0,1.0,1.66636435547,-2.93050283203,9.65342167827,1.0,0.0,0.0,0.0,1.0,0.0,0.0,0.0,1.0
1489584294947751726,153,1489584294946046833,,10.9922428131,-108.132598877,-23.5746593475,0.00251500005834,1.0,0.0,0.0,0.0,1.0,0.0,0.0,0.0,1.0,0.18292683363,4.87804889679,-1.64634156227,1.0,0.0,0.0,0.0,1.0,0.0,0.0,0.0,1.0,1.75734401855,-3.20823022461,9.52413478862,1.0,0.0,0.0,0.0,1.0,0.0,0.0,0.0,1.0
1489584294970446379,154,1489584294968646278,,10.6475610733,-106.913009644,-24.4240913391,0.00261400011368,1.0,0.0,0.0,0.0,1.0,0.0,0.0,0.0,1.0,-0.304878056049,3.7804877758,-1.15853655338,1.0,0.0,0.0,0.0,1.0,0.0,0.0,0.0,1.0,1.6041151123,-3.09809694824,9.57680722515,1.0,0.0,0.0,0.0,1.0,0.0,0.0,0.0,1.0
1489584294994191603,155,1489584294991662753,,10.3463497162,-105.665763855,-25.2301921844,0.00319799990393,1.0,0.0,0.0,0.0,1.0,0.0,0.0,0.0,1.0,0.609756112099,2.86585378647,-0.18292683363,1.0,0.0,0.0,0.0,1.0,0.0,0.0,0.0,1.0,1.62326872559,-3.14119257812,9.45230756977,1.0,0.0,0.0,0.0,1.0,0.0,0.0,0.0,1.0
1489584295016067820,156,1489584295014271521,,10.0689916611,-104.395843506,-26.0220184326,0.00398099981248,1.0,0.0,0.0,0.0,1.0,0.0,0.0,0.0,1.0,0.304878056049,1.76829278469,-0.426829278469,1.0,0.0,0.0,0.0,1.0,0.0,0.0,0.0,1.0,1.72382519531,-3.1364041748,9.40921193989,1.0,0.0,0.0,0.0,1.0,0.0,0.0,0.0,1.0
1489584295038082630,157,1489584295036423883,,9.83428096771,-103.17061615,-26.7491035461,0.0035069999285,1.0,0.0,0.0,0.0,1.0,0.0,0.0,0.0,1.0,0.670731723309,1.70731711388,0.487804889679,1.0,0.0,0.0,0.0,1.0,0.0,0.0,0.0,1.0,1.72382519531,-3.03584770508,9.61511445171,1.0,0.0,0.0,0.0,1.0,0.0,0.0,0.0,1.0
1489584295062145510,158,1489584295059863639,,9.61434555054,-101.856407166,-27.5044231415,0.00415100017563,1.0,0.0,0.0,0.0,1.0,0.0,0.0,0.0,1.0,0.243902444839,1.03658533096,0.365853667259,1.0,0.0,0.0,0.0,1.0,0.0,0.0,0.0,1.0,1.75734401855,-3.06936652832,9.4954043687,1.0,0.0,0.0,0.0,1.0,0.0,0.0,0.0,1.0
1489584295083967404,159,1489584295081598345,,9.39272594452,-100.547698975,-28.239107132,0.00334600009955,1.0,0.0,0.0,0.0,1.0,0.0,0.0,0.0,1.0,0.18292683363,1.2195122242,0.731707334518,1.0,0.0,0.0,0.0,1.0,0.0,0.0,0.0,1.0,1.88184250488,-3.0885201416,9.50019277202,1.0,0.0,0.0,0.0,1.0,0.0,0.0,0.0,1.0
1489584295104171123,160,1489584295101189565,,9.21434688568,-99.3586196899,-28.8967857361,0.00267999991775,1.0,0.0,0.0,0.0,1.0,0.0,0.0,0.0,1.0,0.243902444839,1.09756100178,0.487804889679,1.0,0.0,0.0,0.0,1.0,0.0,0.0,0.0,1.0,1.8626888916,-3.05021291504,9.58159562847,1.0,0.0,0.0,0.0,1.0,0.0,0.0,0.0,1.0
1489584295128980252,161,1489584295123011824,,9.02851772308,-98.0894470215,-29.6051635742,0.00299900001846,1.0,0.0,0.0,0.0,1.0,0.0,0.0,0.0,1.0,0.12195122242,2.25609779358,0.853658556938,1.0,0.0,0.0,0.0,1.0,0.0,0.0,0.0,1.0,1.87226569824,-3.10767375488,9.52892319194,1.0,0.0,0.0,0.0,1.0,0.0,0.0,0.0,1.0
1489584295148705066,162,1489584295146713819,,8.83048820496,-96.7308120728,-30.3257484436,0.00316000008024,1.0,0.0,0.0,0.0,1.0,0.0,0.0,0.0,1.0,0.12195122242,2.13414645195,0.18292683363,1.0,0.0,0.0,0.0,1.0,0.0,0.0,0.0,1.0,1.95845695801,-3.14119257812,9.60074924175,1.0,0.0,0.0,0.0,1.0,0.0,0.0,0.0,1.0
1489584295173377320,163,1489584295169510294,,8.65495967865,-95.3838806152,-31.059879303,0.0029490001034,1.0,0.0,0.0,0.0,1.0,0.0,0.0,0.0,1.0,0.12195122242,2.56097555161,0.304878056049,1.0,0.0,0.0,0.0,1.0,0.0,0.0,0.0,1.0,1.7908628418,-2.93529123535,9.56244201519,1.0,0.0,0.0,0.0,1.0,0.0,0.0,0.0,1.0
1489584295196322493,164,1489584295193089581,,8.47730445862,-94.0159301758,-31.7737846375,0.0031940001063,1.0,0.0,0.0,0.0,1.0,0.0,0.0,0.0,1.0,-0.0609756112099,2.25609779358,-0.304878056049,1.0,0.0,0.0,0.0,1.0,0.0,0.0,0.0,1.0,1.80522805176,-3.01190568848,9.56723041851,1.0,0.0,0.0,0.0,1.0,0.0,0.0,0.0,1.0
1489584295214729288,165,1489584295213027936,,8.32665538788,-92.7869186401,-32.4020957947,0.00402700016275,1.0,0.0,0.0,0.0,1.0,0.0,0.0,0.0,1.0,0.12195122242,2.74390244484,-0.18292683363,1.0,0.0,0.0,0.0,1.0,0.0,0.0,0.0,1.0,1.8148048584,-3.02148249512,9.75397756348,1.0,0.0,0.0,0.0,1.0,0.0,0.0,0.0,1.0
1489584295239381750,166,1489584295237143785,,8.16457939148,-91.3949203491,-33.096446991,0.00336299999617,1.0,0.0,0.0,0.0,1.0,0.0,0.0,0.0,1.0,0.426829278469,2.92682933807,-0.243902444839,1.0,0.0,0.0,0.0,1.0,0.0,0.0,0.0,1.0,1.68551796875,-3.05500131836,9.58638403179,1.0,0.0,0.0,0.0,1.0,0.0,0.0,0.0,1.0
1489584295259751823,167,1489584295257142921,,8.02483272552,-90.1632080078,-33.7113113403,0.00293900002725,1.0,0.0,0.0,0.0,1.0,0.0,0.0,0.0,1.0,0.548780500889,2.74390244484,-0.670731723309,1.0,0.0,0.0,0.0,1.0,0.0,0.0,0.0,1.0,1.838746875,-3.08373173828,9.5193463853,1.0,0.0,0.0,0.0,1.0,0.0,0.0,0.0,1.0
1489584295281849238,168,1489584295279832626,,7.88909769058,-88.8235092163,-34.3644256592,0.00259599997662,1.0,0.0,0.0,0.0,1.0,0.0,0.0,0.0,1.0,-0.0609756112099,3.29268312454,-0.670731723309,1.0,0.0,0.0,0.0,1.0,0.0,0.0,0.0,1.0,1.7908628418,-3.07415493164,9.58638403179,1.0,0.0,0.0,0.0,1.0,0.0,0.0,0.0,1.0
1489584295305573837,169,1489584295302334363,,7.75770664215,-87.5007400513,-34.9873886108,0.00245200004429,1.0,0.0,0.0,0.0,1.0,0.0,0.0,0.0,1.0,-0.487804889679,2.98780488968,-0.731707334518,1.0,0.0,0.0,0.0,1.0,0.0,0.0,0.0,1.0,1.85790048828,-3.20344182129,9.49061596538,1.0,0.0,0.0,0.0,1.0,0.0,0.0,0.0,1.0
1489584295325828545,170,1489584295323293706,,7.64499092102,-86.2911148071,-35.5408248901,0.00255300011486,1.0,0.0,0.0,0.0,1.0,0.0,0.0,0.0,1.0,-0.426829278469,3.65853667259,-0.426829278469,1.0,0.0,0.0,0.0,1.0,0.0,0.0,0.0,1.0,1.75734401855,-2.98796367187,9.48582756206,1.0,0.0,0.0,0.0,1.0,0.0,0.0,0.0,1.0
1489584295348103616,171,1489584295344659819,,7.52671194077,-85.0473632812,-36.0979728699,0.00264400010929,1.0,0.0,0.0,0.0,1.0,0.0,0.0,0.0,1.0,-0.609756112099,2.92682933807,-0.731707334518,1.0,0.0,0.0,0.0,1.0,0.0,0.0,0.0,1.0,1.83395847168,-2.84431157227,9.64384487163,1.0,0.0,0.0,0.0,1.0,0.0,0.0,0.0,1.0
1489584295371155403,172,1489584295367148899,,7.42265939713,-83.8013000488,-36.6228485107,0.00267000007443,1.0,0.0,0.0,0.0,1.0,0.0,0.0,0.0,1.0,-0.487804889679,2.31707310677,-0.853658556938,1.0,0.0,0.0,0.0,1.0,0.0,0.0,0.0,1.0,1.75255561523,-2.98796367187,9.61032604839,1.0,0.0,0.0,0.0,1.0,0.0,0.0,0.0,1.0
1489584295393634067,173,1489584295389895531,,7.33477449417,-82.5083236694,-37.136920929,0.00313200009987,1.0,0.0,0.0,0.0,1.0,0.0,0.0,0.0,1.0,-0.426829278469,1.46341466904,0.0609756112099,1.0,0.0,0.0,0.0,1.0,0.0,0.0,0.0,1.0,1.68551796875,-3.18907661133,9.50019277202,1.0,0.0,0.0,0.0,1.0,0.0,0.0,0.0,1.0
1489584295414883983,174,1489584295412343361,,7.26391220093,-81.192237854,-37.6184082031,0.00350199989043,1.0,0.0,0.0,0.0,1.0,0.0,0.0,0.0,1.0,-0.0609756112099,0.609756112099,0.853658556938,1.0,0.0,0.0,0.0,1.0,0.0,0.0,0.0,1.0,1.61848032227,-3.09809694824,9.57201882183,1.0,0.0,0.0,0.0,1.0,0.0,0.0,0.0,1.0
1489584295434324370,175,1489584295432908851,,7.19264745712,-80.0085449219,-38.0139160156,0.00446699978784,1.0,0.0,0.0,0.0,1.0,0.0,0.0,0.0,1.0,0.0,0.18292683363,0.731707334518,1.0,0.0,0.0,0.0,1.0,0.0,0.0,0.0,1.0,1.74297880859,-3.11725056152,9.56244201519,1.0,0.0,0.0,0.0,1.0,0.0,0.0,0.0,1.0
1489584295457735428,176,1489584295456115326,,7.11484098434,-78.7063293457,-38.4354629517,0.0034380001016,1.0,0.0,0.0,0.0,1.0,0.0,0.0,0.0,1.0,0.18292683363,0.365853667259,0.975609779358,1.0,0.0,0.0,0.0,1.0,0.0,0.0,0.0,1.0,1.85311208496,-3.13161577148,9.48582756206,1.0,0.0,0.0,0.0,1.0,0.0,0.0,0.0,1.0
1489584295478516750,177,1489584295476820190,,7.04731845856,-77.553276062,-38.7925491333,0.00313200009987,1.0,0.0,0.0,0.0,1.0,0.0,0.0,0.0,1.0,0.12195122242,0.609756112099,0.914634168148,1.0,0.0,0.0,0.0,1.0,0.0,0.0,0.0,1.0,1.95845695801,-3.07415493164,9.52892319194,1.0,0.0,0.0,0.0,1.0,0.0,0.0,0.0,1.0
1489584295500370623,178,1489584295498261720,,6.96968173981,-76.3935928345,-39.148109436,0.00361900008284,1.0,0.0,0.0,0.0,1.0,0.0,0.0,0.0,1.0,0.243902444839,0.853658556938,0.670731723309,1.0,0.0,0.0,0.0,1.0,0.0,0.0,0.0,1.0,1.93451494141,-3.09330854492,9.45230756977,1.0,0.0,0.0,0.0,1.0,0.0,0.0,0.0,1.0
1489584295522017830,179,1489584295520246426,,6.88050699234,-75.1164932251,-39.5551681519,0.00303000002168,1.0,0.0,0.0,0.0,1.0,0.0,0.0,0.0,1.0,0.12195122242,1.8292683363,0.12195122242,1.0,0.0,0.0,0.0,1.0,0.0,0.0,0.0,1.0,1.96324536133,-2.97359846191,9.4954043687,1.0,0.0,0.0,0.0,1.0,0.0,0.0,0.0,1.0
1489584295545466179,180,1489584295543420349,,6.79512166977,-73.8498153687,-39.9665641785,0.00301199988462,1.0,0.0,0.0,0.0,1.0,0.0,0.0,0.0,1.0,-0.12195122242,2.86585378647,0.0609756112099,1.0,0.0,0.0,0.0,1.0,0.0,0.0,0.0,1.0,1.87226569824,-2.98317526855,9.61990285503,1.0,0.0,0.0,0.0,1.0,0.0,0.0,0.0,1.0
1489584295569316507,181,1489584295565978075,,6.70647239685,-72.6482849121,-40.356803894,0.00254000001587,1.0,0.0,0.0,0.0,1.0,0.0,0.0,0.0,1.0,-0.304878056049,3.35365867615,-0.548780500889,1.0,0.0,0.0,0.0,1.0,0.0,0.0,0.0,1.0,2.00155258789,-3.02148249512,9.62469125835,1.0,0.0,0.0,0.0,1.0,0.0,0.0,0.0,1.0
1489584295592329024,182,1489584295590378090,,6.62840843201,-71.4534072876,-40.7472038269,0.0026750001125,1.0,0.0,0.0,0.0,1.0,0.0,0.0,0.0,1.0,-0.304878056049,3.23170733452,-0.853658556938,1.0,0.0,0.0,0.0,1.0,0.0,0.0,0.0,1.0,1.74776721191,-3.1124621582,9.47146118306,1.0,0.0,0.0,0.0,1.0,0.0,0.0,0.0,1.0
1489584295614204460,183,1489584295612247796,,6.53219985962,-70.237953186,-41.1209945679,0.00417299987748,1.0,0.0,0.0,0.0,1.0,0.0,0.0,0.0,1.0,-0.243902444839,3.17073178291,-0.914634168148,1.0,0.0,0.0,0.0,1.0,0.0,0.0,0.0,1.0,1.72861359863,-3.05500131836,9.52413478862,1.0,0.0,0.0,0.0,1.0,0.0,0.0,0.0,1.0
1489584295637185935,184,1489584295633641722,,6.44386100769,-69.1397018433,-41.446105957,0.00327500002459,1.0,0.0,0.0,0.0,1.0,0.0,0.0,0.0,1.0,-0.304878056049,3.17073178291,-0.975609779358,1.0,0.0,0.0,0.0,1.0,0.0,0.0,0.0,1.0,1.75734401855,-2.99754047852,9.56723041851,1.0,0.0,0.0,0.0,1.0,0.0,0.0,0.0,1.0
1489584295658584288,185,1489584295656052417,,6.34516716003,-68.0305404663,-41.7591209412,0.00258399988525,1.0,0.0,0.0,0.0,1.0,0.0,0.0,0.0,1.0,-0.365853667259,2.68292689323,-0.853658556938,1.0,0.0,0.0,0.0,1.0,0.0,0.0,0.0,1.0,1.82917006836,-3.13161577148,9.5193463853,1.0,0.0,0.0,0.0,1.0,0.0,0.0,0.0,1.0
1489584295684213572,186,1489584295678396706,,6.24324369431,-66.9047851562,-42.0472831726,0.00260900007561,1.0,0.0,0.0,0.0,1.0,0.0,0.0,0.0,1.0,0.609756112099,2.86585378647,-0.609756112099,1.0,0.0,0.0,0.0,1.0,0.0,0.0,0.0,1.0,1.81001645508,-3.13161577148,9.52413478862,1.0,0.0,0.0,0.0,1.0,0.0,0.0,0.0,1.0
1489584295702763648,187,1489584295700900369,,6.1454949379,-65.7954406738,-42.3369865417,0.00249599991366,1.0,0.0,0.0,0.0,1.0,0.0,0.0,0.0,1.0,0.243902444839,2.92682933807,-0.609756112099,1.0,0.0,0.0,0.0,1.0,0.0,0.0,0.0,1.0,1.84832368164,-3.03105930176,9.65821008159,1.0,0.0,0.0,0.0,1.0,0.0,0.0,0.0,1.0
1489584295726026841,188,1489584295722329347,,6.04542541504,-64.7656784058,-42.598274231,0.00248000002466,1.0,0.0,0.0,0.0,1.0,0.0,0.0,0.0,1.0,0.12195122242,2.86585378647,-0.18292683363,1.0,0.0,0.0,0.0,1.0,0.0,0.0,0.0,1.0,1.84832368164,-2.98796367187,9.61511445171,1.0,0.0,0.0,0.0,1.0,0.0,0.0,0.0,1.0
1489584295745148687,189,1489584295743245148,,5.95275449753,-63.7828941345,-42.8433876038,0.00261899991892,1.0,0.0,0.0,0.0,1.0,0.0,0.0,0.0,1.0,0.0,3.17073178291,-0.426829278469,1.0,0.0,0.0,0.0,1.0,0.0,0.0,0.0,1.0,1.74297880859,-2.94486804199,9.56244201519,1.0,0.0,0.0,0.0,1.0,0.0,0.0,0.0,1.0
1489584295767941361,190,1489584295765527875,,5.85230302811,-62.7389755249,-43.0879478455,0.00248700007796,1.0,0.0,0.0,0.0,1.0,0.0,0.0,0.0,1.0,0.426829278469,2.62195134163,-0.304878056049,1.0,0.0,0.0,0.0,1.0,0.0,0.0,0.0,1.0,1.67115275879,-3.03584770508,9.5432884019,1.0,0.0,0.0,0.0,1.0,0.0,0.0,0.0,1.0
1489584295791148721,191,1489584295789546276,,5.74911546707,-61.7267608643,-43.31407547,0.00247900001705,1.0,0.0,0.0,0.0,1.0,0.0,0.0,0.0,1.0,0.0,2.86585378647,-0.0609756112099,1.0,0.0,0.0,0.0,1.0,0.0,0.0,0.0,1.0,1.88184250488,-2.99754047852,9.56723041851,1.0,0.0,0.0,0.0,1.0,0.0,0.0,0.0,1.0
1489584295812802594,192,1489584295810853951,,5.64488935471,-60.7835693359,-43.5171546936,0.00286399992183,1.0,0.0,0.0,0.0,1.0,0.0,0.0,0.0,1.0,0.18292683363,2.43902444839,-0.304878056049,1.0,0.0,0.0,0.0,1.0,0.0,0.0,0.0,1.0,1.75734401855,-3.03584770508,9.59117243511,1.0,0.0,0.0,0.0,1.0,0.0,0.0,0.0,1.0
1489584295833675323,193,1489584295831969128,,5.52187108994,-59.7700233459,-43.717338562,0.00740600004792,1.0,0.0,0.0,0.0,1.0,0.0,0.0,0.0,1.0,0.0609756112099,2.56097555161,-0.12195122242,1.0,0.0,0.0,0.0,1.0,0.0,0.0,0.0,1.0,1.7908628418,-3.06936652832,9.46667277974,1.0,0.0,0.0,0.0,1.0,0.0,0.0,0.0,1.0
1489584295856047997,194,1489584295853541126,,5.41153097153,-58.8348922729,-43.9053115845,0.00519500020891,1.0,0.0,0.0,0.0,1.0,0.0,0.0,0.0,1.0,0.731707334518,2.86585378647,-0.18292683363,1.0,0.0,0.0,0.0,1.0,0.0,0.0,0.0,1.0,1.82917006836,-3.13161577148,9.55286520855,1.0,0.0,0.0,0.0,1.0,0.0,0.0,0.0,1.0
1489584295876986767,195,1489584295874564323,,5.28388261795,-57.91588974,-44.0917510986,0.00319100008346,1.0,0.0,0.0,0.0,1.0,0.0,0.0,0.0,1.0,0.731707334518,3.90243911743,-0.548780500889,1.0,0.0,0.0,0.0,1.0,0.0,0.0,0.0,1.0,1.83395847168,-3.21780703125,9.50976957866,1.0,0.0,0.0,0.0,1.0,0.0,0.0,0.0,1.0
