%time,field.header.seq,field.header.stamp,field.header.frame_id,field.status.status,field.status.service,field.latitude,field.longitude,field.altitude,field.position_covariance0,field.position_covariance1,field.position_covariance2,field.position_covariance3,field.position_covariance4,field.position_covariance5,field.position_covariance6,field.position_covariance7,field.position_covariance8,field.position_covariance_type
1489584270174749983,100,1489584270172235248,,0,0,46.5184135437,6.56666326523,2.77602830977e-40,1.0,0.0,0.0,0.0,1.0,0.0,0.0,0.0,1.0,0
1489584270181663827,101,1489584270178403155,,0,0,46.5184135437,6.56666326523,2.77602830977e-40,1.0,0.0,0.0,0.0,1.0,0.0,0.0,0.0,1.0,0
1489584270380464305,102,1489584270377529257,,0,0,46.5184173584,6.56665992737,2.77602830977e-40,1.0,0.0,0.0,0.0,1.0,0.0,0.0,0.0,1.0,0
1489584270380563940,103,1489584270378179829,,0,0,46.5184173584,6.56665992737,2.77602830977e-40,1.0,0.0,0.0,0.0,1.0,0.0,0.0,0.0,1.0,0
1489584270575664528,104,1489584270571355837,,0,0,46.518409729,6.56666946411,2.77602830977e-40,1.0,0.0,0.0,0.0,1.0,0.0,0.0,0.0,1.0,0
1489584270580103375,105,1489584270577839212,,0,0,46.518409729,6.56666946411,2.77602830977e-40,1.0,0.0,0.0,0.0,1.0,0.0,0.0,0.0,1.0,0
1489584270770802720,106,1489584270767015851,,0,0,46.518409729,6.56666564941,2.77602830977e-40,1.0,0.0,0.0,0.0,1.0,0.0,0.0,0.0,1.0,0
1489584270780280830,107,1489584270777912449,,0,0,46.518409729,6.56666564941,2.77602830977e-40,1.0,0.0,0.0,0.0,1.0,0.0,0.0,0.0,1.0,0
1489584270966652317,108,1489584270964137998,,0,0,46.5183982849,6.5666718483,2.77602830977e-40,1.0,0.0,0.0,0.0,1.0,0.0,0.0,0.0,1.0,0
1489584270980960889,109,1489584270977836415,,0,0,46.5183982849,6.5666718483,2.77602830977e-40,1.0,0.0,0.0,0.0,1.0,0.0,0.0,0.0,1.0,0
1489584271173803355,110,1489584271170821797,,0,0,46.5184020996,6.56666374207,2.77602830977e-40,1.0,0.0,0.0,0.0,1.0,0.0,0.0,0.0,1.0,0
1489584271182098290,111,1489584271177833662,,0,0,46.5184020996,6.56666374207,2.77602830977e-40,1.0,0.0,0.0,0.0,1.0,0.0,0.0,0.0,1.0,0
1489584271360935466,112,1489584271357548596,,0,0,46.518409729,6.56667041779,2.77602830977e-40,1.0,0.0,0.0,0.0,1.0,0.0,0.0,0.0,1.0,0
1489584271380785956,113,1489584271377967262,,0,0,46.518409729,6.56667041779,2.77602830977e-40,1.0,0.0,0.0,0.0,1.0,0.0,0.0,0.0,1.0,0
1489584271568256451,114,1489584271565392810,,0,0,46.5184173584,6.56667613983,2.77602830977e-40,1.0,0.0,0.0,0.0,1.0,0.0,0.0,0.0,1.0,0
1489584271580321954,115,1489584271577840083,,0,0,46.5184173584,6.56667613983,2.77602830977e-40,1.0,0.0,0.0,0.0,1.0,0.0,0.0,0.0,1.0,0
1489584271926297728,116,1489584271921996381,,0,0,46.5184211731,6.56668329239,2.77602830977e-40,1.0,0.0,0.0,0.0,1.0,0.0,0.0,0.0,1.0,0
1489584271926412832,117,1489584271922589609,,0,0,46.5184211731,6.56668329239,2.77602830977e-40,1.0,0.0,0.0,0.0,1.0,0.0,0.0,0.0,1.0,0
1489584272065820588,118,1489584272063095853,,0,0,46.5183906555,6.56670188904,2.77602830977e-40,1.0,0.0,0.0,0.0,1.0,0.0,0.0,0.0,1.0,0
1489584272125917267,119,1489584272122708001,,0,0,46.5183906555,6.56670188904,2.77602830977e-40,1.0,0.0,0.0,0.0,1.0,0.0,0.0,0.0,1.0,0
1489584272281637238,120,1489584272278815420,,0,0,46.5184249878,6.5666642189,2.77602830977e-40,1.0,0.0,0.0,0.0,1.0,0.0,0.0,0.0,1.0,0
1489584272325643421,121,1489584272322721915,,0,0,46.5184249878,6.5666642189,2.77602830977e-40,1.0,0.0,0.0,0.0,1.0,0.0,0.0,0.0,1.0,0
1489584272473444550,122,1489584272470342263,,0,0,46.518447876,6.56664133072,2.77602830977e-40,1.0,0.0,0.0,0.0,1.0,0.0,0.0,0.0,1.0,0
1489584272527434936,123,1489584272522763902,,0,0,46.518447876,6.56664133072,2.77602830977e-40,1.0,0.0,0.0,0.0,1.0,0.0,0.0,0.0,1.0,0
1489584272657087863,124,1489584272654603440,,0,0,46.5184860229,6.56663417816,2.77602830977e-40,1.0,0.0,0.0,0.0,1.0,0.0,0.0,0.0,1.0,0
1489584272725255312,125,1489584272722767294,,0,0,46.5184860229,6.56663417816,2.77602830977e-40,1.0,0.0,0.0,0.0,1.0,0.0,0.0,0.0,1.0,0
1489584272882103562,126,1489584272879290389,,0,0,46.5184898376,6.56665182114,2.77602830977e-40,1.0,0.0,0.0,0.0,1.0,0.0,0.0,0.0,1.0,0
1489584272925693652,127,1489584272922727146,,0,0,46.5184898376,6.56665182114,2.77602830977e-40,1.0,0.0,0.0,0.0,1.0,0.0,0.0,0.0,1.0,0
1489584273078943105,128,1489584273076385818,,0,0,46.5184783936,6.5666642189,2.77602830977e-40,1.0,0.0,0.0,0.0,1.0,0.0,0.0,0.0,1.0,0
1489584273125549284,129,1489584273122711945,,0,0,46.5184783936,6.5666642189,2.77602830977e-40,1.0,0.0,0.0,0.0,1.0,0.0,0.0,0.0,1.0,0
1489584273276564158,130,1489584273273611506,,0,0,46.518447876,6.56667995453,2.77602830977e-40,1.0,0.0,0.0,0.0,1.0,0.0,0.0,0.0,1.0,0
1489584273326013718,131,1489584273322772369,,0,0,46.518447876,6.56667995453,2.77602830977e-40,1.0,0.0,0.0,0.0,1.0,0.0,0.0,0.0,1.0,0
1489584273474290627,132,1489584273470785789,,0,0,46.5184631348,6.56668281555,2.77602830977e-40,1.0,0.0,0.0,0.0,1.0,0.0,0.0,0.0,1.0,0
1489584273525691643,133,1489584273522708470,,0,0,46.5184631348,6.56668281555,2.77602830977e-40,1.0,0.0,0.0,0.0,1.0,0.0,0.0,0.0,1.0,0
1489584273675620476,134,1489584273673454751,,0,0,46.5184669495,6.56669235229,2.77602830977e-40,1.0,0.0,0.0,0.0,1.0,0.0,0.0,0.0,1.0,0
1489584273724585714,135,1489584273722711967,,0,0,46.5184669495,6.56669235229,2.77602830977e-40,1.0,0.0,0.0,0.0,1.0,0.0,0.0,0.0,1.0,0
1489584273878134855,136,1489584273876338087,,0,0,46.5184364319,6.5666847229,2.77602830977e-40,1.0,0.0,0.0,0.0,1.0,0.0,0.0,0.0,1.0,0
1489584273924416712,137,1489584273922709266,,0,0,46.5184364319,6.5666847229,2.77602830977e-40,1.0,0.0,0.0,0.0,1.0,0.0,0.0,0.0,1.0,0
1489584274062586449,138,1489584274060771087,,0,0,46.5183753967,6.56669616699,2.77602830977e-40,1.0,0.0,0.0,0.0,1.0,0.0,0.0,0.0,1.0,0
1489584274125049010,139,1489584274122704534,,0,0,46.5183753967,6.56669616699,2.77602830977e-40,1.0,0.0,0.0,0.0,1.0,0.0,0.0,0.0,1.0,0
1489584274268572957,140,1489584274266888637,,0,0,46.5184288025,6.5666885376,2.77602830977e-40,1.0,0.0,0.0,0.0,1.0,0.0,0.0,0.0,1.0,0
1489584274325040892,141,1489584274322706208,,0,0,46.5184288025,6.5666885376,2.77602830977e-40,1.0,0.0,0.0,0.0,1.0,0.0,0.0,0.0,1.0,0
1489584274466599634,142,1489584274462853651,,0,0,46.5184288025,6.56671857834,2.77602830977e-40,1.0,0.0,0.0,0.0,1.0,0.0,0.0,0.0,1.0,0
1489584274525387253,143,1489584274522734966,,0,0,46.5184288025,6.56671857834,2.77602830977e-40,1.0,0.0,0.0,0.0,1.0,0.0,0.0,0.0,1.0,0
1489584274659884913,144,1489584274657725645,,0,0,46.5184516907,6.56671380997,2.77602830977e-40,1.0,0.0,0.0,0.0,1.0,0.0,0.0,0.0,1.0,0
1489584274724912574,145,1489584274722709192,,0,0,46.5184516907,6.56671380997,2.77602830977e-40,1.0,0.0,0.0,0.0,1.0,0.0,0.0,0.0,1.0,0
1489584274875546563,146,1489584274873237660,,0,0,46.5184593201,6.56667518616,2.77602830977e-40,1.0,0.0,0.0,0.0,1.0,0.0,0.0,0.0,1.0,0
1489584274927216067,147,1489584274922766491,,0,0,46.5184593201,6.56667518616,2.77602830977e-40,1.0,0.0,0.0,0.0,1.0,0.0,0.0,0.0,1.0,0
1489584275071845534,148,1489584275069899027,,0,0,46.5184555054,6.56665802002,2.77602830977e-40,1.0,0.0,0.0,0.0,1.0,0.0,0.0,0.0,1.0,0
1489584275125044932,149,1489584275122709363,,0,0,46.5184555054,6.56665802002,2.77602830977e-40,1.0,0.0,0.0,0.0,1.0,0.0,0.0,0.0,1.0,0
1489584275267786902,150,1489584275265486801,,0,0,46.518447876,6.56664943695,2.77602830977e-40,1.0,0.0,0.0,0.0,1.0,0.0,0.0,0.0,1.0,0
1489584275325759834,151,1489584275322714058,,0,0,46.518447876,6.56664943695,2.77602830977e-40,1.0,0.0,0.0,0.0,1.0,0.0,0.0,0.0,1.0,0
1489584275450739071,152,1489584275448876782,,0,0,46.5184631348,6.56663942337,2.77602830977e-40,1.0,0.0,0.0,0.0,1.0,0.0,0.0,0.0,1.0,0
1489584275526260883,153,1489584275522710628,,0,0,46.5184631348,6.56663942337,2.77602830977e-40,1.0,0.0,0.0,0.0,1.0,0.0,0.0,0.0,1.0,0
1489584275626064533,154,1489584275622788600,,0,0,46.5184898376,6.56663513184,2.77602830977e-40,1.0,0.0,0.0,0.0,1.0,0.0,0.0,0.0,1.0,0
1489584275726864795,155,1489584275722704958,,0,0,46.5184898376,6.56663513184,2.77602830977e-40,1.0,0.0,0.0,0.0,1.0,0.0,0.0,0.0,1.0,0
1489584275827011518,156,1489584275822776524,,0,0,46.5184860229,6.56664228439,2.77602830977e-40,1.0,0.0,0.0,0.0,1.0,0.0,0.0,0.0,1.0,0
1489584275927461781,157,1489584275922705695,,0,0,46.5184860229,6.56664228439,2.77602830977e-40,1.0,0.0,0.0,0.0,1.0,0.0,0.0,0.0,1.0,0
1489584276026021579,158,1489584276022785073,,0,0,46.5184707642,6.56662940979,2.77602830977e-40,1.0,0.0,0.0,0.0,1.0,0.0,0.0,0.0,1.0,0
1489584276126066999,159,1489584276122706119,,0,0,46.5184707642,6.56662940979,2.77602830977e-40,1.0,0.0,0.0,0.0,1.0,0.0,0.0,0.0,1.0,0
1489584276225825753,160,1489584276222774664,,0,0,46.5184860229,6.56661653519,2.77602830977e-40,1.0,0.0,0.0,0.0,1.0,0.0,0.0,0.0,1.0,0
1489584276327266848,161,1489584276322708262,,0,0,46.5184860229,6.56661653519,2.77602830977e-40,1.0,0.0,0.0,0.0,1.0,0.0,0.0,0.0,1.0,0
1489584276427145863,162,1489584276422774619,,0,0,46.5184860229,6.56665182114,2.77602830977e-40,1.0,0.0,0.0,0.0,1.0,0.0,0.0,0.0,1.0,0
1489584276527188210,163,1489584276522705717,,0,0,46.5184860229,6.56665182114,2.77602830977e-40,1.0,0.0,0.0,0.0,1.0,0.0,0.0,0.0,1.0,0
1489584276625954726,164,1489584276622738273,,0,0,46.5184669495,6.56667709351,2.77602830977e-40,1.0,0.0,0.0,0.0,1.0,0.0,0.0,0.0,1.0,0
1489584276725837074,165,1489584276722709266,,0,0,46.5184669495,6.56667709351,2.77602830977e-40,1.0,0.0,0.0,0.0,1.0,0.0,0.0,0.0,1.0,0
1489584276825766557,166,1489584276822777603,,0,0,46.5184822083,6.56668043137,2.77602830977e-40,1.0,0.0,0.0,0.0,1.0,0.0,0.0,0.0,1.0,0
1489584276926465518,167,1489584276922706721,,0,0,46.5184822083,6.56668043137,2.77602830977e-40,1.0,0.0,0.0,0.0,1.0,0.0,0.0,0.0,1.0,0
1489584277025742345,168,1489584277022778860,,0,0,46.5184669495,6.56667232513,2.77602830977e-40,1.0,0.0,0.0,0.0,1.0,0.0,0.0,0.0,1.0,0
1489584277126009745,169,1489584277122718031,,0,0,46.5184669495,6.56667232513,2.77602830977e-40,1.0,0.0,0.0,0.0,1.0,0.0,0.0,0.0,1.0,0
1489584277225551520,170,1489584277222789753,,0,0,46.5184707642,6.56664705276,2.77602830977e-40,1.0,0.0,0.0,0.0,1.0,0.0,0.0,0.0,1.0,0
1489584277324834077,171,1489584277322813611,,0,0,46.5184707642,6.56664705276,2.77602830977e-40,1.0,0.0,0.0,0.0,1.0,0.0,0.0,0.0,1.0,0
1489584277424878247,172,1489584277422764865,,0,0,46.5184669495,6.56663513184,2.77602830977e-40,1.0,0.0,0.0,0.0,1.0,0.0,0.0,0.0,1.0,0
1489584277525343458,173,1489584277522704660,,0,0,46.5184669495,6.56663513184,2.77602830977e-40,1.0,0.0,0.0,0.0,1.0,0.0,0.0,0.0,1.0,0
1489584277625388566,174,1489584277622780289,,0,0,46.5184631348,6.56665897369,2.77602830977e-40,1.0,0.0,0.0,0.0,1.0,0.0,0.0,0.0,1.0,0
1489584277725844455,175,1489584277722719251,,0,0,46.5184631348,6.56665897369,2.77602830977e-40,1.0,0.0,0.0,0.0,1.0,0.0,0.0,0.0,1.0,0
1489584277825907323,176,1489584277822767380,,0,0,46.5184593201,6.56664180756,2.77602830977e-40,1.0,0.0,0.0,0.0,1.0,0.0,0.0,0.0,1.0,0
1489584277925768004,177,1489584277922718581,,0,0,46.5184593201,6.56664180756,2.77602830977e-40,1.0,0.0,0.0,0.0,1.0,0.0,0.0,0.0,1.0,0
1489584278025921132,178,1489584278022778533,,0,0,46.5184822083,6.56665039062,2.77602830977e-40,1.0,0.0,0.0,0.0,1.0,0.0,0.0,0.0,1.0,0
1489584278125832490,179,1489584278122717495,,0,0,46.5184822083,6.56665039062,2.77602830977e-40,1.0,0.0,0.0,0.0,1.0,0.0,0.0,0.0,1.0,0
1489584278226031660,180,1489584278222796613,,0,0,46.5184440613,6.56664657593,2.77602830977e-40,1.0,0.0,0.0,0.0,1.0,0.0,0.0,0.0,1.0,0
1489584278324850833,181,1489584278322716930,,0,0,46.5184440613,6.56664657593,2.77602830977e-40,1.0,0.0,0.0,0.0,1.0,0.0,0.0,0.0,1.0,0
1489584278425325211,182,1489584278422772819,,0,0,46.5184516907,6.56662940979,2.77602830977e-40,1.0,0.0,0.0,0.0,1.0,0.0,0.0,0.0,1.0,0
1489584278525002142,183,1489584278522701104,,0,0,46.5184516907,6.56662940979,2.77602830977e-40,1.0,0.0,0.0,0.0,1.0,0.0,0.0,0.0,1.0,0
1489584278625308708,184,1489584278622769909,,0,0,46.5185165405,6.56664705276,2.77602830977e-40,1.0,0.0,0.0,0.0,1.0,0.0,0.0,0.0,1.0,0
1489584278727260115,185,1489584278722702205,,0,0,46.5185165405,6.56664705276,2.77602830977e-40,1.0,0.0,0.0,0.0,1.0,0.0,0.0,0.0,1.0,0
1489584278826056526,186,1489584278822785698,,0,0,46.518497467,6.56666898727,2.77602830977e-40,1.0,0.0,0.0,0.0,1.0,0.0,0.0,0.0,1.0,0
1489584278926014082,187,1489584278922704035,,0,0,46.518497467,6.56666898727,2.77602830977e-40,1.0,0.0,0.0,0.0,1.0,0.0,0.0,0.0,1.0,0
1489584279026429502,188,1489584279022773674,,0,0,46.5184593201,6.56663942337,2.77602830977e-40,1.0,0.0,0.0,0.0,1.0,0.0,0.0,0.0,1.0,0
1489584279126365079,189,1489584279122710084,,0,0,46.5184593201,6.56663942337,2.77602830977e-40,1.0,0.0,0.0,0.0,1.0,0.0,0.0,0.0,1.0,0
1489584279225268313,190,1489584279222770244,,0,0,46.5184860229,6.56663608551,2.77602830977e-40,1.0,0.0,0.0,0.0,1.0,0.0,0.0,0.0,1.0,0
1489584279325669462,191,1489584279322705040,,0,0,46.5184860229,6.56663608551,2.77602830977e-40,1.0,0.0,0.0,0.0,1.0,0.0,0.0,0.0,1.0,0
1489584279425051133,192,1489584279422775147,,0,0,46.5184783936,6.56665897369,2.77602830977e-40,1.0,0.0,0.0,0.0,1.0,0.0,0.0,0.0,1.0,0
1489584279525399939,193,1489584279522703432,,0,0,46.5184783936,6.56665897369,2.77602830977e-40,1.0,0.0,0.0,0.0,1.0,0.0,0.0,0.0,1.0,0
1489584279626003848,194,1489584279622769321,,0,0,46.5184707642,6.56665182114,2.77602830977e-40,1.0,0.0,0.0,0.0,1.0,0.0,0.0,0.0,1.0,0
1489584279725462654,195,1489584279722702867,,0,0,46.5184707642,6.56665182114,2.77602830977e-40,1.0,0.0,0.0,0.0,1.0,0.0,0.0,0.0,1.0,0
1489584279825144794,196,1489584279822775318,,0,0,46.5184669495,6.56662940979,2.77602830977e-40,1.0,0.0,0.0,0.0,1.0,0.0,0.0,0.0,1.0,0
1489584279925125996,197,1489584279922704749,,0,0,46.5184669495,6.56662940979,2.77602830977e-40,1.0,0.0,0.0,0.0,1.0,0.0,0.0,0.0,1.0,0
1489584280025783186,198,1489584280022769701,,0,0,46.5184593201,6.56664323807,2.77602830977e-40,1.0,0.0,0.0,0.0,1.0,0.0,0.0,0.0,1.0,0
1489584280125142618,199,1489584280122705330,,0,0,46.5184593201,6.56664323807,2.77602830977e-40,1.0,0.0,0.0,0.0,1.0,0.0,0.0,0.0,1.0,0
1489584280226091214,200,1489584280222770177,,0,0,46.5184669495,6.56667423248,2.77602830977e-40,1.0,0.0,0.0,0.0,1.0,0.0,0.0,0.0,1.0,0
1489584280325400958,201,1489584280322707629,,0,0,46.5184669495,6.56667423248,2.77602830977e-40,1.0,0.0,0.0,0.0,1.0,0.0,0.0,0.0,1.0,0
1489584280424924504,202,1489584280422779299,,0,0,46.5184593201,6.56666994095,2.77602830977e-40,1.0,0.0,0.0,0.0,1.0,0.0,0.0,0.0,1.0,0
1489584280524942633,203,1489584280522708417,,0,0,46.5184593201,6.56666994095,2.77602830977e-40,1.0,0.0,0.0,0.0,1.0,0.0,0.0,0.0,1.0,0
1489584280624998418,204,1489584280622789619,,0,0,46.5184898376,6.56666183472,2.77602830977e-40,1.0,0.0,0.0,0.0,1.0,0.0,0.0,0.0,1.0,0
1489584280725469619,205,1489584280722714779,,0,0,46.5184898376,6.56666183472,2.77602830977e-40,1.0,0.0,0.0,0.0,1.0,0.0,0.0,0.0,1.0,0
1489584280826520871,206,1489584280822796501,,0,0,46.5184936523,6.56665658951,2.77602830977e-40,1.0,0.0,0.0,0.0,1.0,0.0,0.0,0.0,1.0,0
1489584280924916241,207,1489584280922708276,,0,0,46.5184936523,6.56665658951,2.77602830977e-40,1.0,0.0,0.0,0.0,1.0,0.0,0.0,0.0,1.0,0
1489584281024939006,208,1489584281022778228,,0,0,46.5184860229,6.56664466858,2.77602830977e-40,1.0,0.0,0.0,0.0,1.0,0.0,0.0,0.0,1.0,0
1489584281124873332,209,1489584281122706825,,0,0,46.5184860229,6.56664466858,2.77602830977e-40,1.0,0.0,0.0,0.0,1.0,0.0,0.0,0.0,1.0,0
1489584281224911565,210,1489584281222776933,,0,0,46.5184783936,6.56664848328,2.77602830977e-40,1.0,0.0,0.0,0.0,1.0,0.0,0.0,0.0,1.0,0
1489584281325852401,211,1489584281322711103,,0,0,46.5184783936,6.56664848328,2.77602830977e-40,1.0,0.0,0.0,0.0,1.0,0.0,0.0,0.0,1.0,0
1489584281424950583,212,1489584281422774857,,0,0,46.5184593201,6.56663274765,2.77602830977e-40,1.0,0.0,0.0,0.0,1.0,0.0,0.0,0.0,1.0,0
1489584281524910899,213,1489584281522713194,,0,0,46.5184593201,6.56663274765,2.77602830977e-40,1.0,0.0,0.0,0.0,1.0,0.0,0.0,0.0,1.0,0
1489584281625021424,214,1489584281622772989,,0,0,46.5184593201,6.5666308403,2.77602830977e-40,1.0,0.0,0.0,0.0,1.0,0.0,0.0,0.0,1.0,0
1489584281725142104,215,1489584281722706691,,0,0,46.5184593201,6.5666308403,2.77602830977e-40,1.0,0.0,0.0,0.0,1.0,0.0,0.0,0.0,1.0,0
1489584281826106586,216,1489584281822782424,,0,0,46.5184707642,6.56662893295,2.77602830977e-40,1.0,0.0,0.0,0.0,1.0,0.0,0.0,0.0,1.0,0
1489584281925623465,217,1489584281922723105,,0,0,46.5184707642,6.56662893295,2.77602830977e-40,1.0,0.0,0.0,0.0,1.0,0.0,0.0,0.0,1.0,0
1489584282024952116,218,1489584282022784463,,0,0,46.5184669495,6.56664276123,2.77602830977e-40,1.0,0.0,0.0,0.0,1.0,0.0,0.0,0.0,1.0,0
1489584282125719618,219,1489584282122720456,,0,0,46.5184669495,6.56664276123,2.77602830977e-40,1.0,0.0,0.0,0.0,1.0,0.0,0.0,0.0,1.0,0
1489584282225485976,220,1489584282222774158,,0,0,46.5184669495,6.56662988663,2.77602830977e-40,1.0,0.0,0.0,0.0,1.0,0.0,0.0,0.0,1.0,0
1489584282325574574,221,1489584282322709318,,0,0,46.5184669495,6.56662988663,2.77602830977e-40,1.0,0.0,0.0,0.0,1.0,0.0,0.0,0.0,1.0,0
1489584282426067025,222,1489584282422796561,,0,0,46.5184669495,6.56662940979,2.77602830977e-40,1.0,0.0,0.0,0.0,1.0,0.0,0.0,0.0,1.0,0
1489584282526009216,223,1489584282522719533,,0,0,46.5184669495,6.56662940979,2.77602830977e-40,1.0,0.0,0.0,0.0,1.0,0.0,0.0,0.0,1.0,0
1489584282625907084,224,1489584282622776829,,0,0,46.5184783936,6.56663227081,2.77602830977e-40,1.0,0.0,0.0,0.0,1.0,0.0,0.0,0.0,1.0,0
1489584282726037921,225,1489584282722713239,,0,0,46.5184783936,6.56663227081,2.77602830977e-40,1.0,0.0,0.0,0.0,1.0,0.0,0.0,0.0,1.0,0
1489584282824910999,226,1489584282822777253,,0,0,46.5184822083,6.56663131714,2.77602830977e-40,1.0,0.0,0.0,0.0,1.0,0.0,0.0,0.0,1.0,0
1489584282925960533,227,1489584282922707257,,0,0,46.5184822083,6.56663131714,2.77602830977e-40,1.0,0.0,0.0,0.0,1.0,0.0,0.0,0.0,1.0,0
1489584283025919703,228,1489584283022776479,,0,0,46.5184860229,6.56661558151,2.77602830977e-40,1.0,0.0,0.0,0.0,1.0,0.0,0.0,0.0,1.0,0
1489584283125968144,229,1489584283122703254,,0,0,46.5184860229,6.56661558151,2.77602830977e-40,1.0,0.0,0.0,0.0,1.0,0.0,0.0,0.0,1.0,0
1489584283226000596,230,1489584283222770913,,0,0,46.5184936523,6.56661319733,2.77602830977e-40,1.0,0.0,0.0,0.0,1.0,0.0,0.0,0.0,1.0,0
1489584283325889610,231,1489584283322709251,,0,0,46.5184936523,6.56661319733,2.77602830977e-40,1.0,0.0,0.0,0.0,1.0,0.0,0.0,0.0,1.0,0
1489584283424989042,232,1489584283422776598,,0,0,46.5184669495,6.56663036346,2.77602830977e-40,1.0,0.0,0.0,0.0,1.0,0.0,0.0,0.0,1.0,0
1489584283526897689,233,1489584283522709154,,0,0,46.5184669495,6.56663036346,2.77602830977e-40,1.0,0.0,0.0,0.0,1.0,0.0,0.0,0.0,1.0,0
1489584283626228163,234,1489584283622768689,,0,0,46.5184783936,6.56663560867,2.77602830977e-40,1.0,0.0,0.0,0.0,1.0,0.0,0.0,0.0,1.0,0
1489584283726793686,235,1489584283722705828,,0,0,46.5184783936,6.56663560867,2.77602830977e-40,1.0,0.0,0.0,0.0,1.0,0.0,0.0,0.0,1.0,0
1489584283825885150,236,1489584283822776092,,0,0,46.5184783936,6.56663703918,2.77602830977e-40,1.0,0.0,0.0,0.0,1.0,0.0,0.0,0.0,1.0,0
1489584283925402550,237,1489584283922704585,,0,0,46.5184783936,6.56663703918,2.77602830977e-40,1.0,0.0,0.0,0.0,1.0,0.0,0.0,0.0,1.0,0
1489584284025517397,238,1489584284022773808,,0,0,46.5184783936,6.56664180756,2.77602830977e-40,1.0,0.0,0.0,0.0,1.0,0.0,0.0,0.0,1.0,0
1489584284125363964,239,1489584284122705530,,0,0,46.5184783936,6.56664180756,2.77602830977e-40,1.0,0.0,0.0,0.0,1.0,0.0,0.0,0.0,1.0,0
1489584284225522248,240,1489584284222781523,,0,0,46.5184783936,6.56663942337,2.77602830977e-40,1.0,0.0,0.0,0.0,1.0,0.0,0.0,0.0,1.0,0
1489584284325549231,241,1489584284322709600,,0,0,46.5184783936,6.56663942337,2.77602830977e-40,1.0,0.0,0.0,0.0,1.0,0.0,0.0,0.0,1.0,0
1489584284427552826,242,1489584284422767416,,0,0,46.5184745789,6.56662321091,2.77602830977e-40,1.0,0.0,0.0,0.0,1.0,0.0,0.0,0.0,1.0,0
1489584284525312729,243,1489584284522704347,,0,0,46.5184745789,6.56662321091,2.77602830977e-40,1.0,0.0,0.0,0.0,1.0,0.0,0.0,0.0,1.0,0
1489584284625145441,244,1489584284622766747,,0,0,46.5184745789,6.5666217804,2.77602830977e-40,1.0,0.0,0.0,0.0,1.0,0.0,0.0,0.0,1.0,0
1489584284725718621,245,1489584284722704355,,0,0,46.5184745789,6.5666217804,2.77602830977e-40,1.0,0.0,0.0,0.0,1.0,0.0,0.0,0.0,1.0,0
1489584284825764822,246,1489584284822772171,,0,0,46.5184745789,6.56663751602,2.77602830977e-40,1.0,0.0,0.0,0.0,1.0,0.0,0.0,0.0,1.0,0
1489584284925678837,247,1489584284922701081,,0,0,46.5184745789,6.56663751602,2.77602830977e-40,1.0,0.0,0.0,0.0,1.0,0.0,0.0,0.0,1.0,0
1489584285025320508,248,1489584285022777178,,0,0,46.5184707642,6.56664609909,2.77602830977e-40,1.0,0.0,0.0,0.0,1.0,0.0,0.0,0.0,1.0,0
1489584285125084678,249,1489584285122699942,,0,0,46.5184707642,6.56664609909,2.77602830977e-40,1.0,0.0,0.0,0.0,1.0,0.0,0.0,0.0,1.0,0
1489584285224921349,250,1489584285222757602,,0,0,46.5184745789,6.56663656235,2.77602830977e-40,1.0,0.0,0.0,0.0,1.0,0.0,0.0,0.0,1.0,0
1489584285325685102,251,1489584285322721616,,0,0,46.5184745789,6.56663656235,2.77602830977e-40,1.0,0.0,0.0,0.0,1.0,0.0,0.0,0.0,1.0,0
1489584285425755261,252,1489584285422785318,,0,0,46.5184783936,6.56663322449,2.77602830977e-40,1.0,0.0,0.0,0.0,1.0,0.0,0.0,0.0,1.0,0
1489584285525017662,253,1489584285522717353,,0,0,46.5184783936,6.56663322449,2.77602830977e-40,1.0,0.0,0.0,0.0,1.0,0.0,0.0,0.0,1.0,0
1489584285625138655,254,1489584285622779857,,0,0,46.5184783936,6.566634655,2.77602830977e-40,1.0,0.0,0.0,0.0,1.0,0.0,0.0,0.0,1.0,0
1489584285724977201,255,1489584285722717933,,0,0,46.5184783936,6.566634655,2.77602830977e-40,1.0,0.0,0.0,0.0,1.0,0.0,0.0,0.0,1.0,0
1489584285826196578,256,1489584285822779500,,0,0,46.5184783936,6.56662082672,2.77602830977e-40,1.0,0.0,0.0,0.0,1.0,0.0,0.0,0.0,1.0,0
1489584285926015748,257,1489584285922716274,,0,0,46.5184783936,6.56662082672,2.77602830977e-40,1.0,0.0,0.0,0.0,1.0,0.0,0.0,0.0,1.0,0
1489584286026049606,258,1489584286022781382,,0,0,46.5184783936,6.5666179657,2.77602830977e-40,1.0,0.0,0.0,0.0,1.0,0.0,0.0,0.0,1.0,0
1489584286125431173,259,1489584286122719719,,0,0,46.5184783936,6.5666179657,2.77602830977e-40,1.0,0.0,0.0,0.0,1.0,0.0,0.0,0.0,1.0,0
1489584286224966490,260,1489584286222778941,,0,0,46.5184745789,6.56662416458,2.77602830977e-40,1.0,0.0,0.0,0.0,1.0,0.0,0.0,0.0,1.0,0
1489584286327142584,261,1489584286322715404,,0,0,46.5184745789,6.56662416458,2.77602830977e-40,1.0,0.0,0.0,0.0,1.0,0.0,0.0,0.0,1.0,0
1489584286426238475,262,1489584286422779209,,0,0,46.5184783936,6.5666384697,2.77602830977e-40,1.0,0.0,0.0,0.0,1.0,0.0,0.0,0.0,1.0,0
1489584286527952799,263,1489584286522721765,,0,0,46.5184783936,6.5666384697,2.77602830977e-40,1.0,0.0,0.0,0.0,1.0,0.0,0.0,0.0,1.0,0
1489584286626719054,264,1489584286622767550,,0,0,46.5184822083,6.56663656235,2.77602830977e-40,1.0,0.0,0.0,0.0,1.0,0.0,0.0,0.0,1.0,0
1489584286726137913,265,1489584286722704064,,0,0,46.5184822083,6.56663656235,2.77602830977e-40,1.0,0.0,0.0,0.0,1.0,0.0,0.0,0.0,1.0,0
1489584286826730051,266,1489584286822773755,,0,0,46.5184822083,6.56663417816,2.77602830977e-40,1.0,0.0,0.0,0.0,1.0,0.0,0.0,0.0,1.0,0
1489584286925284641,267,1489584286922702718,,0,0,46.5184822083,6.56663417816,2.77602830977e-40,1.0,0.0,0.0,0.0,1.0,0.0,0.0,0.0,1.0,0
1489584287024501208,268,1489584287022777357,,0,0,46.5184860229,6.566634655,2.77602830977e-40,1.0,0.0,0.0,0.0,1.0,0.0,0.0,0.0,1.0,0
1489584287126529125,269,1489584287122703350,,0,0,46.5184860229,6.566634655,2.77602830977e-40,1.0,0.0,0.0,0.0,1.0,0.0,0.0,0.0,1.0,0
1489584287226589806,270,1489584287222770385,,0,0,46.5184898376,6.566634655,2.77602830977e-40,1.0,0.0,0.0,0.0,1.0,0.0,0.0,0.0,1.0,0
1489584287326945122,271,1489584287322743982,,0,0,46.5184898376,6.566634655,2.77602830977e-40,1.0,0.0,0.0,0.0,1.0,0.0,0.0,0.0,1.0,0
1489584287429652048,272,1489584287422774351,,0,0,46.5184860229,6.56664609909,2.77602830977e-40,1.0,0.0,0.0,0.0,1.0,0.0,0.0,0.0,1.0,0
1489584287524949038,273,1489584287522701438,,0,0,46.5184860229,6.56664609909,2.77602830977e-40,1.0,0.0,0.0,0.0,1.0,0.0,0.0,0.0,1.0,0
1489584287626352790,274,1489584287622773577,,0,0,46.5184822083,6.56664657593,2.77602830977e-40,1.0,0.0,0.0,0.0,1.0,0.0,0.0,0.0,1.0,0
1489584287725813836,275,1489584287722705976,,0,0,46.5184822083,6.56664657593,2.77602830977e-40,1.0,0.0,0.0,0.0,1.0,0.0,0.0,0.0,1.0,0
1489584287826144256,276,1489584287822775876,,0,0,46.5184822083,6.56665182114,2.77602830977e-40,1.0,0.0,0.0,0.0,1.0,0.0,0.0,0.0,1.0,0
1489584287925978791,277,1489584287922705984,,0,0,46.5184822083,6.56665182114,2.77602830977e-40,1.0,0.0,0.0,0.0,1.0,0.0,0.0,0.0,1.0,0
1489584288025304004,278,1489584288022771873,,0,0,46.5184745789,6.56663703918,2.77602830977e-40,1.0,0.0,0.0,0.0,1.0,0.0,0.0,0.0,1.0,0
1489584288124950832,279,1489584288122703127,,0,0,46.5184745789,6.56663703918,2.77602830977e-40,1.0,0.0,0.0,0.0,1.0,0.0,0.0,0.0,1.0,0
1489584288224929221,280,1489584288222769432,,0,0,46.5184822083,6.56662988663,2.77602830977e-40,1.0,0.0,0.0,0.0,1.0,0.0,0.0,0.0,1.0,0
1489584288324890266,281,1489584288322696103,,0,0,46.5184822083,6.56662988663,2.77602830977e-40,1.0,0.0,0.0,0.0,1.0,0.0,0.0,0.0,1.0,0
1489584288425077822,282,1489584288422776054,,0,0,46.5184822083,6.56664276123,2.77602830977e-40,1.0,0.0,0.0,0.0,1.0,0.0,0.0,0.0,1.0,0
1489584288524825534,283,1489584288522712881,,0,0,46.5184822083,6.56664276123,2.77602830977e-40,1.0,0.0,0.0,0.0,1.0,0.0,0.0,0.0,1.0,0
1489584288625595432,284,1489584288622770749,,0,0,46.5184822083,6.56663799286,2.77602830977e-40,1.0,0.0,0.0,0.0,1.0,0.0,0.0,0.0,1.0,0
1489584288726120540,285,1489584288722703826,,0,0,46.5184822083,6.56663799286,2.77602830977e-40,1.0,0.0,0.0,0.0,1.0,0.0,0.0,0.0,1.0,0
1489584288825114607,286,1489584288822768309,,0,0,46.5184898376,6.56664943695,2.77602830977e-40,1.0,0.0,0.0,0.0,1.0,0.0,0.0,0.0,1.0,0
1489584288925935131,287,1489584288922702479,,0,0,46.5184898376,6.56664943695,2.77602830977e-40,1.0,0.0,0.0,0.0,1.0,0.0,0.0,0.0,1.0,0
1489584289026462842,288,1489584289022769514,,0,0,46.5184860229,6.56663894653,2.77602830977e-40,1.0,0.0,0.0,0.0,1.0,0.0,0.0,0.0,1.0,0
1489584289125850815,289,1489584289122707539,,0,0,46.5184860229,6.56663894653,2.77602830977e-40,1.0,0.0,0.0,0.0,1.0,0.0,0.0,0.0,1.0,0
1489584289225940611,290,1489584289222767438,,0,0,46.5184860229,6.56663894653,2.77602830977e-40,1.0,0.0,0.0,0.0,1.0,0.0,0.0,0.0,1.0,0
1489584289325610458,291,1489584289322703223,,0,0,46.5184860229,6.56663894653,2.77602830977e-40,1.0,0.0,0.0,0.0,1.0,0.0,0.0,0.0,1.0,0
1489584289426059472,292,1489584289422776196,,0,0,46.5184822083,6.56665325165,2.77602830977e-40,1.0,0.0,0.0,0.0,1.0,0.0,0.0,0.0,1.0,0
1489584289524957081,293,1489584289522703074,,0,0,46.5184822083,6.56665325165,2.77602830977e-40,1.0,0.0,0.0,0.0,1.0,0.0,0.0,0.0,1.0,0
1489584289624986304,294,1489584289622775318,,0,0,46.5184822083,6.56665325165,2.77602830977e-40,1.0,0.0,0.0,0.0,1.0,0.0,0.0,0.0,1.0,0
1489584289725391307,295,1489584289722709644,,0,0,46.5184822083,6.56665325165,2.77602830977e-40,1.0,0.0,0.0,0.0,1.0,0.0,0.0,0.0,1.0,0
1489584289824703135,296,1489584289822795273,,0,0,46.5184822083,6.56664133072,2.77602830977e-40,1.0,0.0,0.0,0.0,1.0,0.0,0.0,0.0,1.0,0
1489584289925953657,297,1489584289922705485,,0,0,46.5184822083,6.56664133072,2.77602830977e-40,1.0,0.0,0.0,0.0,1.0,0.0,0.0,0.0,1.0,0
1489584290026131942,298,1489584290022799082,,0,0,46.5184860229,6.56664323807,2.77602830977e-40,1.0,0.0,0.0,0.0,1.0,0.0,0.0,0.0,1.0,0
1489584290125986165,299,1489584290122708930,,0,0,46.5184860229,6.56664323807,2.77602830977e-40,1.0,0.0,0.0,0.0,1.0,0.0,0.0,0.0,1.0,0
1489584290225337263,300,1489584290222767059,,0,0,46.5184822083,6.56664228439,2.77602830977e-40,1.0,0.0,0.0,0.0,1.0,0.0,0.0,0.0,1.0,0
1489584290325809402,301,1489584290322712167,,0,0,46.5184822083,6.56664228439,2.77602830977e-40,1.0,0.0,0.0,0.0,1.0,0.0,0.0,0.0,1.0,0
1489584290426198675,302,1489584290422773524,,0,0,46.5184745789,6.566634655,2.77602830977e-40,1.0,0.0,0.0,0.0,1.0,0.0,0.0,0.0,1.0,0
1489584290526127377,303,1489584290522701289,,0,0,46.5184745789,6.566634655,2.77602830977e-40,1.0,0.0,0.0,0.0,1.0,0.0,0.0,0.0,1.0,0
1489584290625398320,304,1489584290622770199,,0,0,46.5184822083,6.56665229797,2.77602830977e-40,1.0,0.0,0.0,0.0,1.0,0.0,0.0,0.0,1.0,0
1489584290725140667,305,1489584290722671192,,0,0,46.5184822083,6.56665229797,2.77602830977e-40,1.0,0.0,0.0,0.0,1.0,0.0,0.0,0.0,1.0,0
1489584290825488483,306,1489584290822786143,,0,0,46.5184707642,6.56663179398,2.77602830977e-40,1.0,0.0,0.0,0.0,1.0,0.0,0.0,0.0,1.0,0
1489584290925611664,307,1489584290922718595,,0,0,46.5184707642,6.56663179398,2.77602830977e-40,1.0,0.0,0.0,0.0,1.0,0.0,0.0,0.0,1.0,0
1489584291024965731,308,1489584291022770734,,0,0,46.5184669495,6.56662607193,2.77602830977e-40,1.0,0.0,0.0,0.0,1.0,0.0,0.0,0.0,1.0,0
1489584291125454119,309,1489584291122700009,,0,0,46.5184669495,6.56662607193,2.77602830977e-40,1.0,0.0,0.0,0.0,1.0,0.0,0.0,0.0,1.0,0
1489584291226209382,310,1489584291222773137,,0,0,46.5184707642,6.56663036346,2.77602830977e-40,1.0,0.0,0.0,0.0,1.0,0.0,0.0,0.0,1.0,0
1489584291325786939,311,1489584291322702777,,0,0,46.5184707642,6.56663036346,2.77602830977e-40,1.0,0.0,0.0,0.0,1.0,0.0,0.0,0.0,1.0,0
1489584291425840380,312,1489584291422768718,,0,0,46.5184669495,6.5666179657,2.77602830977e-40,1.0,0.0,0.0,0.0,1.0,0.0,0.0,0.0,1.0,0
1489584291525581426,313,1489584291522701534,,0,0,46.5184669495,6.5666179657,2.77602830977e-40,1.0,0.0,0.0,0.0,1.0,0.0,0.0,0.0,1.0,0
1489584291628279394,314,1489584291622776642,,0,0,46.5184783936,6.56663131714,2.77602830977e-40,1.0,0.0,0.0,0.0,1.0,0.0,0.0,0.0,1.0,0
1489584291724899715,315,1489584291722709771,,0,0,46.5184783936,6.56663131714,2.77602830977e-40,1.0,0.0,0.0,0.0,1.0,0.0,0.0,0.0,1.0,0
1489584291825743989,316,1489584291822769045,,0,0,46.5184783936,6.56662464142,2.77602830977e-40,1.0,0.0,0.0,0.0,1.0,0.0,0.0,0.0,1.0,0
1489584291927092636,317,1489584291922704622,,0,0,46.5184783936,6.56662464142,2.77602830977e-40,1.0,0.0,0.0,0.0,1.0,0.0,0.0,0.0,1.0,0
1489584292025562746,318,1489584292022793948,,0,0,46.5184669495,6.56661319733,2.77602830977e-40,1.0,0.0,0.0,0.0,1.0,0.0,0.0,0.0,1.0,0
1489584292125407229,319,1489584292122700567,,0,0,46.5184669495,6.56661319733,2.77602830977e-40,1.0,0.0,0.0,0.0,1.0,0.0,0.0,0.0,1.0,0
1489584292224975359,320,1489584292222792862,,0,0,46.5184745789,6.56662321091,2.77602830977e-40,1.0,0.0,0.0,0.0,1.0,0.0,0.0,0.0,1.0,0
1489584292324845831,321,1489584292322712137,,0,0,46.5184745789,6.56662321091,2.77602830977e-40,1.0,0.0,0.0,0.0,1.0,0.0,0.0,0.0,1.0,0
1489584292426298541,322,1489584292422792922,,0,0,46.5184745789,6.56662607193,2.77602830977e-40,1.0,0.0,0.0,0.0,1.0,0.0,0.0,0.0,1.0,0
1489584292525683390,323,1489584292522705946,,0,0,46.5184745789,6.56662607193,2.77602830977e-40,1.0,0.0,0.0,0.0,1.0,0.0,0.0,0.0,1.0,0
1489584292624996988,324,1489584292622799908,,0,0,46.5184822083,6.56664419174,2.77602830977e-40,1.0,0.0,0.0,0.0,1.0,0.0,0.0,0.0,1.0,0
1489584292725061054,325,1489584292722707725,,0,0,46.5184822083,6.56664419174,2.77602830977e-40,1.0,0.0,0.0,0.0,1.0,0.0,0.0,0.0,1.0,0
1489584292825538922,326,1489584292822784551,,0,0,46.5184745789,6.56663417816,2.77602830977e-40,1.0,0.0,0.0,0.0,1.0,0.0,0.0,0.0,1.0,0
1489584292926204393,327,1489584292922701742,,0,0,46.5184745789,6.56663417816,2.77602830977e-40,1.0,0.0,0.0,0.0,1.0,0.0,0.0,0.0,1.0,0
1489584293026190751,328,1489584293022782163,,0,0,46.5184745789,6.56663417816,2.77602830977e-40,1.0,0.0,0.0,0.0,1.0,0.0,0.0,0.0,1.0,0
1489584293125593725,329,1489584293122706437,,0,0,46.5184745789,6.56663417816,2.77602830977e-40,1.0,0.0,0.0,0.0,1.0,0.0,0.0,0.0,1.0,0
1489584293227072736,330,1489584293222801128,,0,0,46.5184745789,6.56664037704,2.77602830977e-40,1.0,0.0,0.0,0.0,1.0,0.0,0.0,0.0,1.0,0
1489584293330667943,331,1489584293322701497,,0,0,46.5184745789,6.56664037704,2.77602830977e-40,1.0,0.0,0.0,0.0,1.0,0.0,0.0,0.0,1.0,0
1489584293428808835,332,1489584293422775719,,0,0,46.5184669495,6.56662750244,2.77602830977e-40,1.0,0.0,0.0,0.0,1.0,0.0,0.0,0.0,1.0,0
1489584293531357064,333,1489584293522937546,,0,0,46.5184669495,6.56662750244,2.77602830977e-40,1.0,0.0,0.0,0.0,1.0,0.0,0.0,0.0,1.0,0
1489584293639342212,334,1489584293622783799,,0,0,46.5184593201,6.56661891937,2.77602830977e-40,1.0,0.0,0.0,0.0,1.0,0.0,0.0,0.0,1.0,0
1489584293730770093,335,1489584293722723647,,0,0,46.5184593201,6.56661891937,2.77602830977e-40,1.0,0.0,0.0,0.0,1.0,0.0,0.0,0.0,1.0,0
1489584293828309788,336,1489584293822783078,,0,0,46.5184631348,6.56662559509,2.77602830977e-40,1.0,0.0,0.0,0.0,1.0,0.0,0.0,0.0,1.0,0
1489584293924829589,337,1489584293922728029,,0,0,46.5184631348,6.56662559509,2.77602830977e-40,1.0,0.0,0.0,0.0,1.0,0.0,0.0,0.0,1.0,0
1489584294026398548,338,1489584294022773814,,0,0,46.5184593201,6.56661939621,2.77602830977e-40,1.0,0.0,0.0,0.0,1.0,0.0,0.0,0.0,1.0,0
1489584294124584440,339,1489584294122717360,,0,0,46.5184593201,6.56661939621,2.77602830977e-40,1.0,0.0,0.0,0.0,1.0,0.0,0.0,0.0,1.0,0
1489584294231973964,340,1489584294222782051,,0,0,46.5184555054,6.56661558151,2.77602830977e-40,1.0,0.0,0.0,0.0,1.0,0.0,0.0,0.0,1.0,0
1489584294329380638,341,1489584294322711794,,0,0,46.5184555054,6.56661558151,2.77602830977e-40,1.0,0.0,0.0,0.0,1.0,0.0,0.0,0.0,1.0,0
1489584294427980957,342,1489584294422783673,,0,0,46.5184631348,6.56662273407,2.77602830977e-40,1.0,0.0,0.0,0.0,1.0,0.0,0.0,0.0,1.0,0
1489584294524975496,343,1489584294522703208,,0,0,46.5184631348,6.56662273407,2.77602830977e-40,1.0,0.0,0.0,0.0,1.0,0.0,0.0,0.0,1.0,0
1489584294625116385,344,1489584294622765607,,0,0,46.5184593201,6.56661844254,2.77602830977e-40,1.0,0.0,0.0,0.0,1.0,0.0,0.0,0.0,1.0,0
1489584294724891598,345,1489584294722702174,,0,0,46.5184593201,6.56661844254,2.77602830977e-40,1.0,0.0,0.0,0.0,1.0,0.0,0.0,0.0,1.0,0
1489584294826039152,346,1489584294822796969,,0,0,46.5184593201,6.56661987305,2.77602830977e-40,1.0,0.0,0.0,0.0,1.0,0.0,0.0,0.0,1.0,0
1489584294925687072,347,1489584294922699890,,0,0,46.5184593201,6.56661987305,2.77602830977e-40,1.0,0.0,0.0,0.0,1.0,0.0,0.0,0.0,1.0,0
1489584295027005043,348,1489584295023015466,,0,0,46.5184631348,6.56662321091,2.77602830977e-40,1.0,0.0,0.0,0.0,1.0,0.0,0.0,0.0,1.0,0
1489584295128773169,349,1489584295122718803,,0,0,46.5184631348,6.56662321091,2.77602830977e-40,1.0,0.0,0.0,0.0,1.0,0.0,0.0,0.0,1.0,0
1489584295224870939,350,1489584295222788494,,0,0,46.5184555054,6.56661224365,2.77602830977e-40,1.0,0.0,0.0,0.0,1.0,0.0,0.0,0.0,1.0,0
1489584295325591619,351,1489584295322727977,,0,0,46.5184555054,6.56661224365,2.77602830977e-40,1.0,0.0,0.0,0.0,1.0,0.0,0.0,0.0,1.0,0
1489584295425710320,352,1489584295422782148,,0,0,46.5184593201,6.56661701202,2.77602830977e-40,1.0,0.0,0.0,0.0,1.0,0.0,0.0,0.0,1.0,0
1489584295526575843,353,1489584295522718297,,0,0,46.5184593201,6.56661701202,2.77602830977e-40,1.0,0.0,0.0,0.0,1.0,0.0,0.0,0.0,1.0,0
1489584295626939076,354,1489584295622794967,,0,0,46.5184593201,6.56661605835,2.77602830977e-40,1.0,0.0,0.0,0.0,1.0,0.0,0.0,0.0,1.0,0
1489584295726515382,355,1489584295723463824,,0,0,46.5184593201,6.56661605835,2.77602830977e-40,1.0,0.0,0.0,0.0,1.0,0.0,0.0,0.0,1.0,0
1489584295826295855,356,1489584295822785756,,0,0,46.5184669495,6.56662464142,2.77602830977e-40,1.0,0.0,0.0,0.0,1.0,0.0,0.0,0.0,1.0,0
1489584295925104871,357,1489584295922713104,,0,0,46.5184669495,6.56662464142,2.77602830977e-40,1.0,0.0,0.0,0.0,1.0,0.0,0.0,0.0,1.0,0
1489584296025612426,358,1489584296022786493,,0,0,46.5184631348,6.5666217804,2.77602830977e-40,1.0,0.0,0.0,0.0,1.0,0.0,0.0,0.0,1.0,0
1489584296124828785,359,1489584296122761809,,0,0,46.5184631348,6.5666217804,2.77602830977e-40,1.0,0.0,0.0,0.0,1.0,0.0,0.0,0.0,1.0,0
1489584296225457538,360,1489584296222789833,,0,0,46.5184593201,6.56661891937,2.77602830977e-40,1.0,0.0,0.0,0.0,1.0,0.0,0.0,0.0,1.0,0
1489584296325641447,361,1489584296322719577,,0,0,46.5184593201,6.56661891937,2.77602830977e-40,1.0,0.0,0.0,0.0,1.0,0.0,0.0,0.0,1.0,0
1489584296428585353,362,1489584296422780622,,0,0,46.5184593201,6.56661701202,2.77602830977e-40,1.0,0.0,0.0,0.0,1.0,0.0,0.0,0.0,1.0,0
1489584296528379315,363,1489584296522728803,,0,0,46.5184593201,6.56661701202,2.77602830977e-40,1.0,0.0,0.0,0.0,1.0,0.0,0.0,0.0,1.0,0
1489584296628176403,364,1489584296622777505,,0,0,46.5184555054,6.56661319733,2.77602830977e-40,1.0,0.0,0.0,0.0,1.0,0.0,0.0,0.0,1.0,0
1489584296728281562,365,1489584296722729644,,0,0,46.5184555054,6.56661319733,2.77602830977e-40,1.0,0.0,0.0,0.0,1.0,0.0,0.0,0.0,1.0,0
1489584296825694122,366,1489584296822791731,,0,0,46.5184593201,6.5666179657,2.77602830977e-40,1.0,0.0,0.0,0.0,1.0,0.0,0.0,0.0,1.0,0
1489584296928269487,367,1489584296922736162,,0,0,46.5184593201,6.5666179657,2.77602830977e-40,1.0,0.0,0.0,0.0,1.0,0.0,0.0,0.0,1.0,0
1489584297027539596,368,1489584297022798822,,0,0,46.5184593201,6.56661891937,2.77602830977e-40,1.0,0.0,0.0,0.0,1.0,0.0,0.0,0.0,1.0,0
1489584297124860385,369,1489584297122709711,,0,0,46.5184593201,6.56661891937,2.77602830977e-40,1.0,0.0,0.0,0.0,1.0,0.0,0.0,0.0,1.0,0
1489584297225023773,370,1489584297222780131,,0,0,46.5184631348,6.56662416458,2.77602830977e-40,1.0,0.0,0.0,0.0,1.0,0.0,0.0,0.0,1.0,0
1489584297326886483,371,1489584297322726177,,0,0,46.5184631348,6.56662416458,2.77602830977e-40,1.0,0.0,0.0,0.0,1.0,0.0,0.0,0.0,1.0,0
1489584297425860134,372,1489584297422784774,,0,0,46.5184631348,6.5666217804,2.77602830977e-40,1.0,0.0,0.0,0.0,1.0,0.0,0.0,0.0,1.0,0
1489584297528931904,373,1489584297522719621,,0,0,46.5184631348,6.5666217804,2.77602830977e-40,1.0,0.0,0.0,0.0,1.0,0.0,0.0,0.0,1.0,0
1489584297626419307,374,1489584297622787073,,0,0,46.5184707642,6.56663322449,2.77602830977e-40,1.0,0.0,0.0,0.0,1.0,0.0,0.0,0.0,1.0,0
1489584297726197696,375,1489584297722719473,,0,0,46.5184707642,6.56663322449,2.77602830977e-40,1.0,0.0,0.0,0.0,1.0,0.0,0.0,0.0,1.0,0
1489584297829470716,376,1489584297822777445,,0,0,46.5184745789,6.56663608551,2.77602830977e-40,1.0,0.0,0.0,0.0,1.0,0.0,0.0,0.0,1.0,0
1489584297930170250,377,1489584297922955261,,0,0,46.5184745789,6.56663608551,2.77602830977e-40,1.0,0.0,0.0,0.0,1.0,0.0,0.0,0.0,1.0,0
1489584298030882648,378,1489584298022779900,,0,0,46.5184631348,6.56662082672,2.77602830977e-40,1.0,0.0,0.0,0.0,1.0,0.0,0.0,0.0,1.0,0
1489584298124952453,379,1489584298122729540,,0,0,46.5184631348,6.56662082672,2.77602830977e-40,1.0,0.0,0.0,0.0,1.0,0.0,0.0,0.0,1.0,0
1489584298226115215,380,1489584298222781366,,0,0,46.5184555054,6.56660985947,2.77602830977e-40,1.0,0.0,0.0,0.0,1.0,0.0,0.0,0.0,1.0,0
1489584298324942564,381,1489584298322804339,,0,0,46.5184555054,6.56660985947,2.77602830977e-40,1.0,0.0,0.0,0.0,1.0,0.0,0.0,0.0,1.0,0
1489584298424940954,382,1489584298422804186,,0,0,46.5184593201,6.56661367416,2.77602830977e-40,1.0,0.0,0.0,0.0,1.0,0.0,0.0,0.0,1.0,0
1489584298524881687,383,1489584298522730752,,0,0,46.5184593201,6.56661367416,2.77602830977e-40,1.0,0.0,0.0,0.0,1.0,0.0,0.0,0.0,1.0,0
1489584298626137990,384,1489584298622799037,,0,0,46.5184555054,6.5666103363,2.77602830977e-40,1.0,0.0,0.0,0.0,1.0,0.0,0.0,0.0,1.0,0
1489584298727754762,385,1489584298722717114,,0,0,46.5184555054,6.5666103363,2.77602830977e-40,1.0,0.0,0.0,0.0,1.0,0.0,0.0,0.0,1.0,0
1489584298826431122,386,1489584298822783263,,0,0,46.5184555054,6.56661081314,2.77602830977e-40,1.0,0.0,0.0,0.0,1.0,0.0,0.0,0.0,1.0,0
1489584298928017009,387,1489584298922719778,,0,0,46.5184555054,6.56661081314,2.77602830977e-40,1.0,0.0,0.0,0.0,1.0,0.0,0.0,0.0,1.0,0
1489584299026086026,388,1489584299022784208,,0,0,46.5184516907,6.56660556793,2.77602830977e-40,1.0,0.0,0.0,0.0,1.0,0.0,0.0,0.0,1.0,0
1489584299125555145,389,1489584299122712233,,0,0,46.5184516907,6.56660556793,2.77602830977e-40,1.0,0.0,0.0,0.0,1.0,0.0,0.0,0.0,1.0,0
1489584299225632857,390,1489584299222780466,,0,0,46.5184516907,6.56660509109,2.77602830977e-40,1.0,0.0,0.0,0.0,1.0,0.0,0.0,0.0,1.0,0
1489584299326915724,391,1489584299322719480,,0,0,46.5184516907,6.56660509109,2.77602830977e-40,1.0,0.0,0.0,0.0,1.0,0.0,0.0,0.0,1.0,0
1489584299426609946,392,1489584299422788390,,0,0,46.518447876,6.56660032272,2.77602830977e-40,1.0,0.0,0.0,0.0,1.0,0.0,0.0,0.0,1.0,0
1489584299525501827,393,1489584299522722664,,0,0,46.518447876,6.56660032272,2.77602830977e-40,1.0,0.0,0.0,0.0,1.0,0.0,0.0,0.0,1.0,0
1489584299625983184,394,1489584299622789699,,0,0,46.5184402466,6.56659078598,2.77602830977e-40,1.0,0.0,0.0,0.0,1.0,0.0,0.0,0.0,1.0,0
1489584299729410214,395,1489584299722718661,,0,0,46.5184402466,6.56659078598,2.77602830977e-40,1.0,0.0,0.0,0.0,1.0,0.0,0.0,0.0,1.0,0
1489584299829364801,396,1489584299822775071,,0,0,46.5184440613,6.56659603119,2.77602830977e-40,1.0,0.0,0.0,0.0,1.0,0.0,0.0,0.0,1.0,0
1489584299930037668,397,1489584299922732731,,0,0,46.5184440613,6.56659603119,2.77602830977e-40,1.0,0.0,0.0,0.0,1.0,0.0,0.0,0.0,1.0,0
1489584300029870589,398,1489584300022793516,,0,0,46.518447876,6.5665974617,2.77602830977e-40,1.0,0.0,0.0,0.0,1.0,0.0,0.0,0.0,1.0,0
1489584300126178984,399,1489584300122732791,,0,0,46.518447876,6.5665974617,2.77602830977e-40,1.0,0.0,0.0,0.0,1.0,0.0,0.0,0.0,1.0,0
1489584300226231539,400,1489584300222739670,,0,0,46.518447876,6.56659936905,2.77602830977e-40,1.0,0.0,0.0,0.0,1.0,0.0,0.0,0.0,1.0,0
1489584300325412950,401,1489584300322717642,,0,0,46.518447876,6.56659936905,2.77602830977e-40,1.0,0.0,0.0,0.0,1.0,0.0,0.0,0.0,1.0,0
1489584300427280764,402,1489584300422780979,,0,0,46.518447876,6.56659698486,2.77602830977e-40,1.0,0.0,0.0,0.0,1.0,0.0,0.0,0.0,1.0,0
1489584300525835561,403,1489584300522708795,,0,0,46.518447876,6.56659698486,2.77602830977e-40,1.0,0.0,0.0,0.0,1.0,0.0,0.0,0.0,1.0,0
1489584300628637332,404,1489584300622805934,,0,0,46.518447876,6.56659412384,2.77602830977e-40,1.0,0.0,0.0,0.0,1.0,0.0,0.0,0.0,1.0,0
1489584300729627855,405,1489584300722711824,,0,0,46.518447876,6.56659412384,2.77602830977e-40,1.0,0.0,0.0,0.0,1.0,0.0,0.0,0.0,1.0,0
1489584300825467917,406,1489584300822766827,,0,0,46.518447876,6.56659650803,2.77602830977e-40,1.0,0.0,0.0,0.0,1.0,0.0,0.0,0.0,1.0,0
1489584300926336825,407,1489584300922712039,,0,0,46.518447876,6.56659650803,2.77602830977e-40,1.0,0.0,0.0,0.0,1.0,0.0,0.0,0.0,1.0,0
1489584301029448856,408,1489584301022768137,,0,0,46.5184516907,6.56659841537,2.77602830977e-40,1.0,0.0,0.0,0.0,1.0,0.0,0.0,0.0,1.0,0
1489584301126070792,409,1489584301122718401,,0,0,46.5184516907,6.56659841537,2.77602830977e-40,1.0,0.0,0.0,0.0,1.0,0.0,0.0,0.0,1.0,0
1489584301225622306,410,1489584301222786269,,0,0,46.518447876,6.56659650803,2.77602830977e-40,1.0,0.0,0.0,0.0,1.0,0.0,0.0,0.0,1.0,0
1489584301325460331,411,1489584301322714919,,0,0,46.518447876,6.56659650803,2.77602830977e-40,1.0,0.0,0.0,0.0,1.0,0.0,0.0,0.0,1.0,0
1489584301426111376,412,1489584301422782631,,0,0,46.5184440613,6.56659173965,2.77602830977e-40,1.0,0.0,0.0,0.0,1.0,0.0,0.0,0.0,1.0,0
1489584301528463303,413,1489584301522713051,,0,0,46.5184440613,6.56659173965,2.77602830977e-40,1.0,0.0,0.0,0.0,1.0,0.0,0.0,0.0,1.0,0
1489584301627422527,414,1489584301622790971,,0,0,46.5184402466,6.56658935547,2.77602830977e-40,1.0,0.0,0.0,0.0,1.0,0.0,0.0,0.0,1.0,0
1489584301725382794,415,1489584301722695090,,0,0,46.5184402466,6.56658935547,2.77602830977e-40,1.0,0.0,0.0,0.0,1.0,0.0,0.0,0.0,1.0,0
1489584301826980243,416,1489584301822793114,,0,0,46.5184440613,6.56659269333,2.77602830977e-40,1.0,0.0,0.0,0.0,1.0,0.0,0.0,0.0,1.0,0
1489584301926860247,417,1489584301922717441,,0,0,46.5184440613,6.56659269333,2.77602830977e-40,1.0,0.0,0.0,0.0,1.0,0.0,0.0,0.0,1.0,0
1489584302027848895,418,1489584302022778122,,0,0,46.5184440613,6.56659221649,2.77602830977e-40,1.0,0.0,0.0,0.0,1.0,0.0,0.0,0.0,1.0,0
1489584302125958433,419,1489584302122721928,,0,0,46.5184440613,6.56659221649,2.77602830977e-40,1.0,0.0,0.0,0.0,1.0,0.0,0.0,0.0,1.0,0
1489584302226175676,420,1489584302222852660,,0,0,46.5184516907,6.56660509109,2.77602830977e-40,1.0,0.0,0.0,0.0,1.0,0.0,0.0,0.0,1.0,0
1489584302329144165,421,1489584302322752716,,0,0,46.5184516907,6.56660509109,2.77602830977e-40,1.0,0.0,0.0,0.0,1.0,0.0,0.0,0.0,1.0,0
1489584302427869900,422,1489584302422775637,,0,0,46.5184516907,6.56660509109,2.77602830977e-40,1.0,0.0,0.0,0.0,1.0,0.0,0.0,0.0,1.0,0
1489584302525725532,423,1489584302522723088,,0,0,46.5184516907,6.56660509109,2.77602830977e-40,1.0,0.0,0.0,0.0,1.0,0.0,0.0,0.0,1.0,0
1489584302625334182,424,1489584302622772988,,0,0,46.5184555054,6.56661605835,2.77602830977e-40,1.0,0.0,0.0,0.0,1.0,0.0,0.0,0.0,1.0,0
1489584302730078189,425,1489584302722712471,,0,0,46.5184555054,6.56661605835,2.77602830977e-40,1.0,0.0,0.0,0.0,1.0,0.0,0.0,0.0,1.0,0
1489584302827723248,426,1489584302822775756,,0,0,46.5184593201,6.56661510468,2.77602830977e-40,1.0,0.0,0.0,0.0,1.0,0.0,0.0,0.0,1.0,0
1489584302924987631,427,1489584302922712374,,0,0,46.5184593201,6.56661510468,2.77602830977e-40,1.0,0.0,0.0,0.0,1.0,0.0,0.0,0.0,1.0,0
1489584303028323202,428,1489584303022777273,,0,0,46.5184593201,6.56662797928,2.77602830977e-40,1.0,0.0,0.0,0.0,1.0,0.0,0.0,0.0,1.0,0
1489584303125673523,429,1489584303122709673,,0,0,46.5184593201,6.56662797928,2.77602830977e-40,1.0,0.0,0.0,0.0,1.0,0.0,0.0,0.0,1.0,0
1489584303230104249,430,1489584303222919520,,0,0,46.5184555054,6.56663656235,2.77602830977e-40,1.0,0.0,0.0,0.0,1.0,0.0,0.0,0.0,1.0,0
1489584303325786342,431,1489584303322715618,,0,0,46.5184555054,6.56663656235,2.77602830977e-40,1.0,0.0,0.0,0.0,1.0,0.0,0.0,0.0,1.0,0
1489584303425882127,432,1489584303422794111,,0,0,46.518447876,6.56662988663,2.77602830977e-40,1.0,0.0,0.0,0.0,1.0,0.0,0.0,0.0,1.0,0
1489584303527049525,433,1489584303522712865,,0,0,46.518447876,6.56662988663,2.77602830977e-40,1.0,0.0,0.0,0.0,1.0,0.0,0.0,0.0,1.0,0
1489584303625675989,434,1489584303622783598,,0,0,46.5184516907,6.56661605835,2.77602830977e-40,1.0,0.0,0.0,0.0,1.0,0.0,0.0,0.0,1.0,0
1489584303726010055,435,1489584303722712977,,0,0,46.5184516907,6.56661605835,2.77602830977e-40,1.0,0.0,0.0,0.0,1.0,0.0,0.0,0.0,1.0,0
1489584303827200994,436,1489584303822803553,,0,0,46.5184326172,6.5666270256,2.77602830977e-40,1.0,0.0,0.0,0.0,1.0,0.0,0.0,0.0,1.0,0
1489584303924918449,437,1489584303922707828,,0,0,46.5184326172,6.5666270256,2.77602830977e-40,1.0,0.0,0.0,0.0,1.0,0.0,0.0,0.0,1.0,0
1489584304025992774,438,1489584304022778352,,0,0,46.5184555054,6.56662607193,2.77602830977e-40,1.0,0.0,0.0,0.0,1.0,0.0,0.0,0.0,1.0,0
1489584304125893664,439,1489584304122704658,,0,0,46.5184555054,6.56662607193,2.77602830977e-40,1.0,0.0,0.0,0.0,1.0,0.0,0.0,0.0,1.0,0
1489584304413497548,440,1489584304403964229,,0,0,46.5184707642,6.56663227081,2.77602830977e-40,1.0,0.0,0.0,0.0,1.0,0.0,0.0,0.0,1.0,0
1489584304415086295,441,1489584304404711624,,0,0,46.5184707642,6.56663227081,2.77602830977e-40,1.0,0.0,0.0,0.0,1.0,0.0,0.0,0.0,1.0,0
1489584304880947564,442,1489584304874527522,,0,0,46.5184707642,6.56660652161,2.77602830977e-40,1.0,0.0,0.0,0.0,1.0,0.0,0.0,0.0,1.0,0
1489584304881696105,443,1489584304875445541,,0,0,46.5184707642,6.56660652161,2.77602830977e-40,1.0,0.0,0.0,0.0,1.0,0.0,0.0,0.0,1.0,0
1489584305483135968,444,1489584305476802072,,0,0,46.5184822083,6.56658887863,2.77602830977e-40,1.0,0.0,0.0,0.0,1.0,0.0,0.0,0.0,1.0,0
1489584305483248729,445,1489584305477533008,,0,0,46.5184822083,6.56658887863,2.77602830977e-40,1.0,0.0,0.0,0.0,1.0,0.0,0.0,0.0,1.0,0
1489584305999612576,446,1489584305993493263,,0,0,46.5185050964,6.56655931473,2.77602830977e-40,1.0,0.0,0.0,0.0,1.0,0.0,0.0,0.0,1.0,0
1489584305999738045,447,1489584305994066752,,0,0,46.5185050964,6.56655931473,2.77602830977e-40,1.0,0.0,0.0,0.0,1.0,0.0,0.0,0.0,1.0,0
1489584306531961191,448,1489584306525988492,,0,0,46.5185203552,6.56654644012,2.77602830977e-40,1.0,0.0,0.0,0.0,1.0,0.0,0.0,0.0,1.0,0
1489584306532000775,449,1489584306526927657,,0,0,46.5185203552,6.56654644012,2.77602830977e-40,1.0,0.0,0.0,0.0,1.0,0.0,0.0,0.0,1.0,0
1489584307011218533,450,1489584307004214898,,0,0,46.5185317993,6.5665268898,2.77602830977e-40,1.0,0.0,0.0,0.0,1.0,0.0,0.0,0.0,1.0,0
1489584307011319991,451,1489584307004783179,,0,0,46.5185317993,6.5665268898,2.77602830977e-40,1.0,0.0,0.0,0.0,1.0,0.0,0.0,0.0,1.0,0
1489584307350888640,452,1489584307343824016,,0,0,46.5185508728,6.56650161743,2.77602830977e-40,1.0,0.0,0.0,0.0,1.0,0.0,0.0,0.0,1.0,0
1489584307351034734,453,1489584307344463285,,0,0,46.5185508728,6.56650161743,2.77602830977e-40,1.0,0.0,0.0,0.0,1.0,0.0,0.0,0.0,1.0,0
1489584307669971435,454,1489584307662147436,,0,0,46.5185585022,6.56648206711,2.77602830977e-40,1.0,0.0,0.0,0.0,1.0,0.0,0.0,0.0,1.0,0
1489584307673337471,455,1489584307662762800,,0,0,46.5185585022,6.56648206711,2.77602830977e-40,1.0,0.0,0.0,0.0,1.0,0.0,0.0,0.0,1.0,0
1489584307956108238,456,1489584307952382202,,0,0,46.5185775757,6.56648635864,2.77602830977e-40,1.0,0.0,0.0,0.0,1.0,0.0,0.0,0.0,1.0,0
1489584307956764383,457,1489584307952961941,,0,0,46.5185775757,6.56648635864,2.77602830977e-40,1.0,0.0,0.0,0.0,1.0,0.0,0.0,0.0,1.0,0
1489584308273362077,458,1489584308269877655,,0,0,46.5185928345,6.5664691925,2.77602830977e-40,1.0,0.0,0.0,0.0,1.0,0.0,0.0,0.0,1.0,0
1489584308273474577,459,1489584308270524269,,0,0,46.5185928345,6.5664691925,2.77602830977e-40,1.0,0.0,0.0,0.0,1.0,0.0,0.0,0.0,1.0,0
1489584308559059766,460,1489584308555108366,,0,0,46.5186004639,6.56647634506,2.77602830977e-40,1.0,0.0,0.0,0.0,1.0,0.0,0.0,0.0,1.0,0
1489584308559187110,461,1489584308555912375,,0,0,46.5186004639,6.56647634506,2.77602830977e-40,1.0,0.0,0.0,0.0,1.0,0.0,0.0,0.0,1.0,0
1489584308885666351,462,1489584308882455419,,0,0,46.5186080933,6.56645154953,2.77602830977e-40,1.0,0.0,0.0,0.0,1.0,0.0,0.0,0.0,1.0,0
1489584308886056090,463,1489584308883124428,,0,0,46.5186080933,6.56645154953,2.77602830977e-40,1.0,0.0,0.0,0.0,1.0,0.0,0.0,0.0,1.0,0
1489584309224564272,464,1489584309221553026,,0,0,46.5186347961,6.5664730072,2.77602830977e-40,1.0,0.0,0.0,0.0,1.0,0.0,0.0,0.0,1.0,0
1489584309224642292,465,1489584309222259171,,0,0,46.5186347961,6.5664730072,2.77602830977e-40,1.0,0.0,0.0,0.0,1.0,0.0,0.0,0.0,1.0,0
1489584309545581438,466,1489584309541903111,,0,0,46.5186347961,6.56646680832,2.77602830977e-40,1.0,0.0,0.0,0.0,1.0,0.0,0.0,0.0,1.0,0
1489584309545710657,467,1489584309542524047,,0,0,46.5186347961,6.56646680832,2.77602830977e-40,1.0,0.0,0.0,0.0,1.0,0.0,0.0,0.0,1.0,0
1489584309679630505,468,1489584309676927800,,0,0,46.5186271667,6.56645584106,2.77602830977e-40,1.0,0.0,0.0,0.0,1.0,0.0,0.0,0.0,1.0,0
1489584309745544831,469,1489584309742652492,,0,0,46.5186271667,6.56645584106,2.77602830977e-40,1.0,0.0,0.0,0.0,1.0,0.0,0.0,0.0,1.0,0
1489584309866921313,470,1489584309863658870,,0,0,46.5186271667,6.56644773483,2.77602830977e-40,1.0,0.0,0.0,0.0,1.0,0.0,0.0,0.0,1.0,0
1489584309945678849,471,1489584309942689843,,0,0,46.5186271667,6.56644773483,2.77602830977e-40,1.0,0.0,0.0,0.0,1.0,0.0,0.0,0.0,1.0,0
1489584310084166294,472,1489584310078410521,,0,0,46.5186233521,6.56646680832,2.77602830977e-40,1.0,0.0,0.0,0.0,1.0,0.0,0.0,0.0,1.0,0
1489584310150506766,473,1489584310142686048,,0,0,46.5186233521,6.56646680832,2.77602830977e-40,1.0,0.0,0.0,0.0,1.0,0.0,0.0,0.0,1.0,0
1489584310287488640,474,1489584310281354535,,0,0,46.518611908,6.56646680832,2.77602830977e-40,1.0,0.0,0.0,0.0,1.0,0.0,0.0,0.0,1.0,0
1489584310345804697,475,1489584310342779754,,0,0,46.518611908,6.56646680832,2.77602830977e-40,1.0,0.0,0.0,0.0,1.0,0.0,0.0,0.0,1.0,0
1489584310477005695,476,1489584310474232990,,0,0,46.5186157227,6.56646633148,2.77602830977e-40,1.0,0.0,0.0,0.0,1.0,0.0,0.0,0.0,1.0,0
1489584310546198974,477,1489584310543008979,,0,0,46.5186157227,6.56646633148,2.77602830977e-40,1.0,0.0,0.0,0.0,1.0,0.0,0.0,0.0,1.0,0
1489584310679083668,478,1489584310676326120,,0,0,46.5186080933,6.56647920609,2.77602830977e-40,1.0,0.0,0.0,0.0,1.0,0.0,0.0,0.0,1.0,0
1489584310745668879,479,1489584310742650602,,0,0,46.5186080933,6.56647920609,2.77602830977e-40,1.0,0.0,0.0,0.0,1.0,0.0,0.0,0.0,1.0,0
1489584310874073683,480,1489584310871762488,,0,0,46.5186080933,6.56647539139,2.77602830977e-40,1.0,0.0,0.0,0.0,1.0,0.0,0.0,0.0,1.0,0
1489584310946453260,481,1489584310942665974,,0,0,46.5186080933,6.56647539139,2.77602830977e-40,1.0,0.0,0.0,0.0,1.0,0.0,0.0,0.0,1.0,0
1489584311069218072,482,1489584311066947034,,0,0,46.5186233521,6.56646871567,2.77602830977e-40,1.0,0.0,0.0,0.0,1.0,0.0,0.0,0.0,1.0,0
1489584311148978576,483,1489584311142658794,,0,0,46.5186233521,6.56646871567,2.77602830977e-40,1.0,0.0,0.0,0.0,1.0,0.0,0.0,0.0,1.0,0
1489584311271136306,484,1489584311263689026,,0,0,46.5186195374,6.56646108627,2.77602830977e-40,1.0,0.0,0.0,0.0,1.0,0.0,0.0,0.0,1.0,0
1489584311349497072,485,1489584311342638333,,0,0,46.5186195374,6.56646108627,2.77602830977e-40,1.0,0.0,0.0,0.0,1.0,0.0,0.0,0.0,1.0,0
1489584311473042300,486,1489584311470747825,,0,0,46.5186157227,6.56645584106,2.77602830977e-40,1.0,0.0,0.0,0.0,1.0,0.0,0.0,0.0,1.0,0
1489584311544825264,487,1489584311542676777,,0,0,46.5186157227,6.56645584106,2.77602830977e-40,1.0,0.0,0.0,0.0,1.0,0.0,0.0,0.0,1.0,0
1489584311670340645,488,1489584311667099140,,0,0,46.5186309814,6.56646108627,2.77602830977e-40,1.0,0.0,0.0,0.0,1.0,0.0,0.0,0.0,1.0,0
1489584311744363449,489,1489584311742699389,,0,0,46.5186309814,6.56646108627,2.77602830977e-40,1.0,0.0,0.0,0.0,1.0,0.0,0.0,0.0,1.0,0
1489584311874703094,490,1489584311871626744,,0,0,46.5186233521,6.56647109985,2.77602830977e-40,1.0,0.0,0.0,0.0,1.0,0.0,0.0,0.0,1.0,0
1489584311945541996,491,1489584311942643771,,0,0,46.5186233521,6.56647109985,2.77602830977e-40,1.0,0.0,0.0,0.0,1.0,0.0,0.0,0.0,1.0,0
1489584312085718032,492,1489584312083602879,,0,0,46.5186157227,6.56647729874,2.77602830977e-40,1.0,0.0,0.0,0.0,1.0,0.0,0.0,0.0,1.0,0
1489584312145505025,493,1489584312142662112,,0,0,46.5186157227,6.56647729874,2.77602830977e-40,1.0,0.0,0.0,0.0,1.0,0.0,0.0,0.0,1.0,0
1489584312291797510,494,1489584312289114233,,0,0,46.5186080933,6.56647157669,2.77602830977e-40,1.0,0.0,0.0,0.0,1.0,0.0,0.0,0.0,1.0,0
1489584312344842637,495,1489584312342708474,,0,0,46.5186080933,6.56647157669,2.77602830977e-40,1.0,0.0,0.0,0.0,1.0,0.0,0.0,0.0,1.0,0
1489584312474392960,496,1489584312472423953,,0,0,46.5186195374,6.56646871567,2.77602830977e-40,1.0,0.0,0.0,0.0,1.0,0.0,0.0,0.0,1.0,0
1489584312544745666,497,1489584312542640096,,0,0,46.5186195374,6.56646871567,2.77602830977e-40,1.0,0.0,0.0,0.0,1.0,0.0,0.0,0.0,1.0,0
1489584312661634498,498,1489584312658708825,,0,0,46.5186157227,6.56645727158,2.77602830977e-40,1.0,0.0,0.0,0.0,1.0,0.0,0.0,0.0,1.0,0
1489584312747569471,499,1489584312742672447,,0,0,46.5186157227,6.56645727158,2.77602830977e-40,1.0,0.0,0.0,0.0,1.0,0.0,0.0,0.0,1.0,0
1489584312877153544,500,1489584312874652194,,0,0,46.5186195374,6.56645536423,2.77602830977e-40,1.0,0.0,0.0,0.0,1.0,0.0,0.0,0.0,1.0,0
1489584312945459429,501,1489584312942667923,,0,0,46.5186195374,6.56645536423,2.77602830977e-40,1.0,0.0,0.0,0.0,1.0,0.0,0.0,0.0,1.0,0
1489584313073243870,502,1489584313070082156,,0,0,46.5186195374,6.56646108627,2.77602830977e-40,1.0,0.0,0.0,0.0,1.0,0.0,0.0,0.0,1.0,0
1489584313147555215,503,1489584313142679024,,0,0,46.5186195374,6.56646108627,2.77602830977e-40,1.0,0.0,0.0,0.0,1.0,0.0,0.0,0.0,1.0,0
1489584313306506535,504,1489584313302753728,,0,0,46.5186233521,6.56645202637,2.77602830977e-40,1.0,0.0,0.0,0.0,1.0,0.0,0.0,0.0,1.0,0
1489584313345022518,505,1489584313342649917,,0,0,46.5186233521,6.56645202637,2.77602830977e-40,1.0,0.0,0.0,0.0,1.0,0.0,0.0,0.0,1.0,0
1489584313476148047,506,1489584313473796071,,0,0,46.5186271667,6.56644773483,2.77602830977e-40,1.0,0.0,0.0,0.0,1.0,0.0,0.0,0.0,1.0,0
1489584313544873723,507,1489584313542649300,,0,0,46.5186271667,6.56644773483,2.77602830977e-40,1.0,0.0,0.0,0.0,1.0,0.0,0.0,0.0,1.0,0
1489584313680581902,508,1489584313678028416,,0,0,46.5186271667,6.5664563179,2.77602830977e-40,1.0,0.0,0.0,0.0,1.0,0.0,0.0,0.0,1.0,0
1489584313744728158,509,1489584313742645557,,0,0,46.5186271667,6.5664563179,2.77602830977e-40,1.0,0.0,0.0,0.0,1.0,0.0,0.0,0.0,1.0,0
1489584313886099140,510,1489584313881459252,,0,0,46.5186233521,6.56646966934,2.77602830977e-40,1.0,0.0,0.0,0.0,1.0,0.0,0.0,0.0,1.0,0
1489584313945013582,511,1489584313942650512,,0,0,46.5186233521,6.56646966934,2.77602830977e-40,1.0,0.0,0.0,0.0,1.0,0.0,0.0,0.0,1.0,0
1489584314059077522,512,1489584314055139872,,0,0,46.5186271667,6.56646156311,2.77602830977e-40,1.0,0.0,0.0,0.0,1.0,0.0,0.0,0.0,1.0,0
1489584314145658067,513,1489584314142649322,,0,0,46.5186271667,6.56646156311,2.77602830977e-40,1.0,0.0,0.0,0.0,1.0,0.0,0.0,0.0,1.0,0
1489584314292443677,514,1489584314290317690,,0,0,46.5186309814,6.56645679474,2.77602830977e-40,1.0,0.0,0.0,0.0,1.0,0.0,0.0,0.0,1.0,0
1489584314345633700,515,1489584314342656621,,0,0,46.5186309814,6.56645679474,2.77602830977e-40,1.0,0.0,0.0,0.0,1.0,0.0,0.0,0.0,1.0,0
1489584314477790998,516,1489584314475095638,,0,0,46.5186309814,6.56645441055,2.77602830977e-40,1.0,0.0,0.0,0.0,1.0,0.0,0.0,0.0,1.0,0
1489584314545051416,517,1489584314542642878,,0,0,46.5186309814,6.56645441055,2.77602830977e-40,1.0,0.0,0.0,0.0,1.0,0.0,0.0,0.0,1.0,0
1489584314675851165,518,1489584314673395335,,0,0,46.5186271667,6.56645011902,2.77602830977e-40,1.0,0.0,0.0,0.0,1.0,0.0,0.0,0.0,1.0,0
1489584314745496684,519,1489584314742643719,,0,0,46.5186271667,6.56645011902,2.77602830977e-40,1.0,0.0,0.0,0.0,1.0,0.0,0.0,0.0,1.0,0
1489584314873482790,520,1489584314869590557,,0,0,46.5186233521,6.5664525032,2.77602830977e-40,1.0,0.0,0.0,0.0,1.0,0.0,0.0,0.0,1.0,0
1489584314947803406,521,1489584314942642060,,0,0,46.5186233521,6.5664525032,2.77602830977e-40,1.0,0.0,0.0,0.0,1.0,0.0,0.0,0.0,1.0,0
1489584315079838986,522,1489584315077322219,,0,0,46.5186309814,6.5664434433,2.77602830977e-40,1.0,0.0,0.0,0.0,1.0,0.0,0.0,0.0,1.0,0
1489584315148616954,523,1489584315142651078,,0,0,46.5186309814,6.5664434433,2.77602830977e-40,1.0,0.0,0.0,0.0,1.0,0.0,0.0,0.0,1.0,0
1489584315287379972,524,1489584315283234249,,0,0,46.5186271667,6.56644535065,2.77602830977e-40,1.0,0.0,0.0,0.0,1.0,0.0,0.0,0.0,1.0,0
1489584315351105708,525,1489584315342648533,,0,0,46.5186271667,6.56644535065,2.77602830977e-40,1.0,0.0,0.0,0.0,1.0,0.0,0.0,0.0,1.0,0
1489584315460531687,526,1489584315456661276,,0,0,46.5186309814,6.56644821167,2.77602830977e-40,1.0,0.0,0.0,0.0,1.0,0.0,0.0,0.0,1.0,0
1489584315549473061,527,1489584315542645259,,0,0,46.5186309814,6.56644821167,2.77602830977e-40,1.0,0.0,0.0,0.0,1.0,0.0,0.0,0.0,1.0,0
1489584315675305474,528,1489584315671697146,,0,0,46.5186271667,6.56645345688,2.77602830977e-40,1.0,0.0,0.0,0.0,1.0,0.0,0.0,0.0,1.0,0
1489584315745152659,529,1489584315742646881,,0,0,46.5186271667,6.56645345688,2.77602830977e-40,1.0,0.0,0.0,0.0,1.0,0.0,0.0,0.0,1.0,0
1489584315878837715,530,1489584315876349959,,0,0,46.5186233521,6.56645584106,2.77602830977e-40,1.0,0.0,0.0,0.0,1.0,0.0,0.0,0.0,1.0,0
1489584315944922458,531,1489584315942652618,,0,0,46.5186233521,6.56645584106,2.77602830977e-40,1.0,0.0,0.0,0.0,1.0,0.0,0.0,0.0,1.0,0
1489584316077186527,532,1489584316072210649,,0,0,46.5186233521,6.56645679474,2.77602830977e-40,1.0,0.0,0.0,0.0,1.0,0.0,0.0,0.0,1.0,0
1489584316149468136,533,1489584316142644292,,0,0,46.5186233521,6.56645679474,2.77602830977e-40,1.0,0.0,0.0,0.0,1.0,0.0,0.0,0.0,1.0,0
1489584316288546205,534,1489584316286339906,,0,0,46.5186195374,6.56646585464,2.77602830977e-40,1.0,0.0,0.0,0.0,1.0,0.0,0.0,0.0,1.0,0
1489584316346014607,535,1489584316342653310,,0,0,46.5186195374,6.56646585464,2.77602830977e-40,1.0,0.0,0.0,0.0,1.0,0.0,0.0,0.0,1.0,0
1489584316484945124,536,1489584316482743304,,0,0,46.5186195374,6.56647205353,2.77602830977e-40,1.0,0.0,0.0,0.0,1.0,0.0,0.0,0.0,1.0,0
1489584316544967741,537,1489584316542642223,,0,0,46.5186195374,6.56647205353,2.77602830977e-40,1.0,0.0,0.0,0.0,1.0,0.0,0.0,0.0,1.0,0
1489584316679011651,538,1489584316676357540,,0,0,46.5186157227,6.5664691925,2.77602830977e-40,1.0,0.0,0.0,0.0,1.0,0.0,0.0,0.0,1.0,0
1489584316749114565,539,1489584316742649731,,0,0,46.5186157227,6.5664691925,2.77602830977e-40,1.0,0.0,0.0,0.0,1.0,0.0,0.0,0.0,1.0,0
1489584316865394283,540,1489584316861945955,,0,0,46.5186195374,6.56645965576,2.77602830977e-40,1.0,0.0,0.0,0.0,1.0,0.0,0.0,0.0,1.0,0
1489584316944971714,541,1489584316942654009,,0,0,46.5186195374,6.56645965576,2.77602830977e-40,1.0,0.0,0.0,0.0,1.0,0.0,0.0,0.0,1.0,0
1489584317080235778,542,1489584317076801357,,0,0,46.5186309814,6.56644201279,2.77602830977e-40,1.0,0.0,0.0,0.0,1.0,0.0,0.0,0.0,1.0,0
1489584317150691921,543,1489584317142803183,,0,0,46.5186309814,6.56644201279,2.77602830977e-40,1.0,0.0,0.0,0.0,1.0,0.0,0.0,0.0,1.0,0
1489584317283547916,544,1489584317280794170,,0,0,46.5186233521,6.56645870209,2.77602830977e-40,1.0,0.0,0.0,0.0,1.0,0.0,0.0,0.0,1.0,0
1489584317345899488,545,1489584317342650170,,0,0,46.5186233521,6.56645870209,2.77602830977e-40,1.0,0.0,0.0,0.0,1.0,0.0,0.0,0.0,1.0,0
1489584317474990176,546,1489584317472253826,,0,0,46.5186233521,6.56645727158,2.77602830977e-40,1.0,0.0,0.0,0.0,1.0,0.0,0.0,0.0,1.0,0
1489584317545005799,547,1489584317542647208,,0,0,46.5186233521,6.56645727158,2.77602830977e-40,1.0,0.0,0.0,0.0,1.0,0.0,0.0,0.0,1.0,0
