%time,field.header.seq,field.header.stamp,field.header.frame_id,field.status.status,field.status.service,field.latitude,field.longitude,field.altitude,field.position_covariance0,field.position_covariance1,field.position_covariance2,field.position_covariance3,field.position_covariance4,field.position_covariance5,field.position_covariance6,field.position_covariance7,field.position_covariance8,field.position_covariance_type
1489584062927195333,101,1489584062923722057,,0,0,46.5184898376,6.56663417816,2.77602830977e-40,1.0,0.0,0.0,0.0,1.0,0.0,0.0,0.0,1.0,0
1489584063026200026,102,1489584063023758883,,0,0,46.5184860229,6.56663370132,2.77602830977e-40,1.0,0.0,0.0,0.0,1.0,0.0,0.0,0.0,1.0,0
1489584063126921903,103,1489584063123712116,,0,0,46.5184860229,6.56663370132,2.77602830977e-40,1.0,0.0,0.0,0.0,1.0,0.0,0.0,0.0,1.0,0
1489584063226437637,104,1489584063223721964,,0,0,46.5184669495,6.56663608551,2.77602830977e-40,1.0,0.0,0.0,0.0,1.0,0.0,0.0,0.0,1.0,0
1489584063326458109,105,1489584063323706551,,0,0,46.5184669495,6.56663608551,2.77602830977e-40,1.0,0.0,0.0,0.0,1.0,0.0,0.0,0.0,1.0,0
1489584063426784779,106,1489584063423775721,,0,0,46.5184745789,6.56663417816,2.77602830977e-40,1.0,0.0,0.0,0.0,1.0,0.0,0.0,0.0,1.0,0
1489584063526804627,107,1489584063523727340,,0,0,46.5184745789,6.56663417816,2.77602830977e-40,1.0,0.0,0.0,0.0,1.0,0.0,0.0,0.0,1.0,0
1489584063627311192,108,1489584063623910572,,0,0,46.5184936523,6.56663608551,2.77602830977e-40,1.0,0.0,0.0,0.0,1.0,0.0,0.0,0.0,1.0,0
1489584063725786979,109,1489584063723697764,,0,0,46.5184936523,6.56663608551,2.77602830977e-40,1.0,0.0,0.0,0.0,1.0,0.0,0.0,0.0,1.0,0
1489584063826203961,110,1489584063823762715,,0,0,46.5184745789,6.56663227081,2.77602830977e-40,1.0,0.0,0.0,0.0,1.0,0.0,0.0,0.0,1.0,0
1489584063926061934,111,1489584063923704802,,0,0,46.5184745789,6.56663227081,2.77602830977e-40,1.0,0.0,0.0,0.0,1.0,0.0,0.0,0.0,1.0,0
1489584064025965792,112,1489584064023722202,,0,0,46.5184783936,6.56664466858,2.77602830977e-40,1.0,0.0,0.0,0.0,1.0,0.0,0.0,0.0,1.0,0
1489584064126626472,113,1489584064123692726,,0,0,46.5184783936,6.56664466858,2.77602830977e-40,1.0,0.0,0.0,0.0,1.0,0.0,0.0,0.0,1.0,0
1489584064225813560,114,1489584064223757886,,0,0,46.5184936523,6.56662607193,2.77602830977e-40,1.0,0.0,0.0,0.0,1.0,0.0,0.0,0.0,1.0,0
1489584064327202156,115,1489584064323685859,,0,0,46.5184936523,6.56662607193,2.77602830977e-40,1.0,0.0,0.0,0.0,1.0,0.0,0.0,0.0,1.0,0
1489584064426484035,116,1489584064423727060,,0,0,46.5184745789,6.56664514542,2.77602830977e-40,1.0,0.0,0.0,0.0,1.0,0.0,0.0,0.0,1.0,0
1489584064526714351,117,1489584064523686856,,0,0,46.5184745789,6.56664514542,2.77602830977e-40,1.0,0.0,0.0,0.0,1.0,0.0,0.0,0.0,1.0,0
1489584064627597479,118,1489584064623755870,,0,0,46.5184593201,6.56666326523,2.77602830977e-40,1.0,0.0,0.0,0.0,1.0,0.0,0.0,0.0,1.0,0
1489584064726916963,119,1489584064723683634,,0,0,46.5184593201,6.56666326523,2.77602830977e-40,1.0,0.0,0.0,0.0,1.0,0.0,0.0,0.0,1.0,0
1489584064825724103,120,1489584064823725304,,0,0,46.5184783936,6.56665182114,2.77602830977e-40,1.0,0.0,0.0,0.0,1.0,0.0,0.0,0.0,1.0,0
1489584064927329574,121,1489584064923687860,,0,0,46.5184783936,6.56665182114,2.77602830977e-40,1.0,0.0,0.0,0.0,1.0,0.0,0.0,0.0,1.0,0
1489584065026919005,122,1489584065023750676,,0,0,46.5184783936,6.56665563583,2.77602830977e-40,1.0,0.0,0.0,0.0,1.0,0.0,0.0,0.0,1.0,0
1489584065127654268,123,1489584065123688701,,0,0,46.5184783936,6.56665563583,2.77602830977e-40,1.0,0.0,0.0,0.0,1.0,0.0,0.0,0.0,1.0,0
1489584065226325992,124,1489584065223729955,,0,0,46.5184707642,6.56664800644,2.77602830977e-40,1.0,0.0,0.0,0.0,1.0,0.0,0.0,0.0,1.0,0
1489584065326459850,125,1489584065323692250,,0,0,46.5184707642,6.56664800644,2.77602830977e-40,1.0,0.0,0.0,0.0,1.0,0.0,0.0,0.0,1.0,0
1489584065427927977,126,1489584065423755223,,0,0,46.5184669495,6.56666994095,2.77602830977e-40,1.0,0.0,0.0,0.0,1.0,0.0,0.0,0.0,1.0,0
1489584065526389649,127,1489584065523759966,,0,0,46.5184669495,6.56666994095,2.77602830977e-40,1.0,0.0,0.0,0.0,1.0,0.0,0.0,0.0,1.0,0
1489584065626621684,128,1489584065623726011,,0,0,46.5184669495,6.56667232513,2.77602830977e-40,1.0,0.0,0.0,0.0,1.0,0.0,0.0,0.0,1.0,0
1489584065726206845,129,1489584065723698098,,0,0,46.5184669495,6.56667232513,2.77602830977e-40,1.0,0.0,0.0,0.0,1.0,0.0,0.0,0.0,1.0,0
1489584065827674658,130,1489584065823754821,,0,0,46.5184516907,6.56664514542,2.77602830977e-40,1.0,0.0,0.0,0.0,1.0,0.0,0.0,0.0,1.0,0
1489584065927423933,131,1489584065923696647,,0,0,46.5184516907,6.56664514542,2.77602830977e-40,1.0,0.0,0.0,0.0,1.0,0.0,0.0,0.0,1.0,0
1489584066027445656,132,1489584066023719047,,0,0,46.5184745789,6.56663131714,2.77602830977e-40,1.0,0.0,0.0,0.0,1.0,0.0,0.0,0.0,1.0,0
1489584066127556545,133,1489584066123691342,,0,0,46.5184745789,6.56663131714,2.77602830977e-40,1.0,0.0,0.0,0.0,1.0,0.0,0.0,0.0,1.0,0
1489584066227615090,134,1489584066223757179,,0,0,46.5185012817,6.56662130356,2.77602830977e-40,1.0,0.0,0.0,0.0,1.0,0.0,0.0,0.0,1.0,0
1489584066327702125,135,1489584066323690673,,0,0,46.5185012817,6.56662130356,2.77602830977e-40,1.0,0.0,0.0,0.0,1.0,0.0,0.0,0.0,1.0,0
1489584066427997962,136,1489584066423717239,,0,0,46.5185203552,6.56661653519,2.77602830977e-40,1.0,0.0,0.0,0.0,1.0,0.0,0.0,0.0,1.0,0
1489584066526352811,137,1489584066523680211,,0,0,46.5185203552,6.56661653519,2.77602830977e-40,1.0,0.0,0.0,0.0,1.0,0.0,0.0,0.0,1.0,0
1489584066626180315,138,1489584066623746153,,0,0,46.518497467,6.56661939621,2.77602830977e-40,1.0,0.0,0.0,0.0,1.0,0.0,0.0,0.0,1.0,0
1489584066725688601,139,1489584066723690635,,0,0,46.518497467,6.56661939621,2.77602830977e-40,1.0,0.0,0.0,0.0,1.0,0.0,0.0,0.0,1.0,0
1489584066827785060,140,1489584066823732150,,0,0,46.5184783936,6.56661462784,2.77602830977e-40,1.0,0.0,0.0,0.0,1.0,0.0,0.0,0.0,1.0,0
1489584066927643658,141,1489584066923679132,,0,0,46.5184783936,6.56661462784,2.77602830977e-40,1.0,0.0,0.0,0.0,1.0,0.0,0.0,0.0,1.0,0
1489584067027723609,142,1489584067023834240,,0,0,46.5184822083,6.56661891937,2.77602830977e-40,1.0,0.0,0.0,0.0,1.0,0.0,0.0,0.0,1.0,0
1489584067127518301,143,1489584067123658411,,0,0,46.5184822083,6.56661891937,2.77602830977e-40,1.0,0.0,0.0,0.0,1.0,0.0,0.0,0.0,1.0,0
1489584067226410858,144,1489584067223707894,,0,0,46.5184631348,6.56662130356,2.77602830977e-40,1.0,0.0,0.0,0.0,1.0,0.0,0.0,0.0,1.0,0
1489584067327737631,145,1489584067323682533,,0,0,46.5184631348,6.56662130356,2.77602830977e-40,1.0,0.0,0.0,0.0,1.0,0.0,0.0,0.0,1.0,0
1489584067427940030,146,1489584067423847276,,0,0,46.5184860229,6.56665658951,2.77602830977e-40,1.0,0.0,0.0,0.0,1.0,0.0,0.0,0.0,1.0,0
1489584067527452899,147,1489584067523698894,,0,0,46.5184860229,6.56665658951,2.77602830977e-40,1.0,0.0,0.0,0.0,1.0,0.0,0.0,0.0,1.0,0
1489584067626969206,148,1489584067623734575,,0,0,46.5185012817,6.56667089462,2.77602830977e-40,1.0,0.0,0.0,0.0,1.0,0.0,0.0,0.0,1.0,0
1489584067726527439,149,1489584067723684110,,0,0,46.5185012817,6.56667089462,2.77602830977e-40,1.0,0.0,0.0,0.0,1.0,0.0,0.0,0.0,1.0,0
1489584067826197547,150,1489584067823730103,,0,0,46.5184936523,6.56668043137,2.77602830977e-40,1.0,0.0,0.0,0.0,1.0,0.0,0.0,0.0,1.0,0
1489584067926939113,151,1489584067923705472,,0,0,46.5184936523,6.56668043137,2.77602830977e-40,1.0,0.0,0.0,0.0,1.0,0.0,0.0,0.0,1.0,0
1489584068026179690,152,1489584068023762871,,0,0,46.5184860229,6.56664180756,2.77602830977e-40,1.0,0.0,0.0,0.0,1.0,0.0,0.0,0.0,1.0,0
1489584068126849381,153,1489584068123683344,,0,0,46.5184860229,6.56664180756,2.77602830977e-40,1.0,0.0,0.0,0.0,1.0,0.0,0.0,0.0,1.0,0
1489584068226273916,154,1489584068223736837,,0,0,46.5184860229,6.56666231155,2.77602830977e-40,1.0,0.0,0.0,0.0,1.0,0.0,0.0,0.0,1.0,0
1489584068327186419,155,1489584068323756945,,0,0,46.5184860229,6.56666231155,2.77602830977e-40,1.0,0.0,0.0,0.0,1.0,0.0,0.0,0.0,1.0,0
1489584068427976890,156,1489584068423722209,,0,0,46.5184669495,6.56663036346,2.77602830977e-40,1.0,0.0,0.0,0.0,1.0,0.0,0.0,0.0,1.0,0
1489584068527131843,157,1489584068523703931,,0,0,46.5184669495,6.56663036346,2.77602830977e-40,1.0,0.0,0.0,0.0,1.0,0.0,0.0,0.0,1.0,0
1489584068627019295,158,1489584068623752477,,0,0,46.5184783936,6.56665086746,2.77602830977e-40,1.0,0.0,0.0,0.0,1.0,0.0,0.0,0.0,1.0,0
1489584068726663257,159,1489584068723683210,,0,0,46.5184783936,6.56665086746,2.77602830977e-40,1.0,0.0,0.0,0.0,1.0,0.0,0.0,0.0,1.0,0
1489584068827603312,160,1489584068823716547,,0,0,46.5184822083,6.56667137146,2.77602830977e-40,1.0,0.0,0.0,0.0,1.0,0.0,0.0,0.0,1.0,0
1489584068927290816,161,1489584068923732592,,0,0,46.5184822083,6.56667137146,2.77602830977e-40,1.0,0.0,0.0,0.0,1.0,0.0,0.0,0.0,1.0,0
1489584069026830716,162,1489584069023760252,,0,0,46.5184745789,6.56664943695,2.77602830977e-40,1.0,0.0,0.0,0.0,1.0,0.0,0.0,0.0,1.0,0
1489584069125800461,163,1489584069123702027,,0,0,46.5184745789,6.56664943695,2.77602830977e-40,1.0,0.0,0.0,0.0,1.0,0.0,0.0,0.0,1.0,0
1489584069226770515,164,1489584069223740364,,0,0,46.5184516907,6.56667327881,2.77602830977e-40,1.0,0.0,0.0,0.0,1.0,0.0,0.0,0.0,1.0,0
1489584069326856040,165,1489584069323695211,,0,0,46.5184516907,6.56667327881,2.77602830977e-40,1.0,0.0,0.0,0.0,1.0,0.0,0.0,0.0,1.0,0
1489584069427954479,166,1489584069423729902,,0,0,46.5184822083,6.5666513443,2.77602830977e-40,1.0,0.0,0.0,0.0,1.0,0.0,0.0,0.0,1.0,0
1489584069526753599,167,1489584069523696104,,0,0,46.5184822083,6.5666513443,2.77602830977e-40,1.0,0.0,0.0,0.0,1.0,0.0,0.0,0.0,1.0,0
1489584069626724905,168,1489584069623711785,,0,0,46.5184669495,6.56665897369,2.77602830977e-40,1.0,0.0,0.0,0.0,1.0,0.0,0.0,0.0,1.0,0
1489584069726997669,169,1489584069723706372,,0,0,46.5184669495,6.56665897369,2.77602830977e-40,1.0,0.0,0.0,0.0,1.0,0.0,0.0,0.0,1.0,0
1489584069826014132,170,1489584069823754344,,0,0,46.5184707642,6.5666437149,2.77602830977e-40,1.0,0.0,0.0,0.0,1.0,0.0,0.0,0.0,1.0,0
1489584069926344240,171,1489584069923686223,,0,0,46.5184707642,6.5666437149,2.77602830977e-40,1.0,0.0,0.0,0.0,1.0,0.0,0.0,0.0,1.0,0
1489584070026264087,172,1489584070023716227,,0,0,46.5184669495,6.56663656235,2.77602830977e-40,1.0,0.0,0.0,0.0,1.0,0.0,0.0,0.0,1.0,0
1489584070127511120,173,1489584070124964510,,0,0,46.5184669495,6.56663656235,2.77602830977e-40,1.0,0.0,0.0,0.0,1.0,0.0,0.0,0.0,1.0,0
1489584070226031231,174,1489584070223718890,,0,0,46.5184669495,6.56664180756,2.77602830977e-40,1.0,0.0,0.0,0.0,1.0,0.0,0.0,0.0,1.0,0
1489584070325964099,175,1489584070323744467,,0,0,46.5184669495,6.56664180756,2.77602830977e-40,1.0,0.0,0.0,0.0,1.0,0.0,0.0,0.0,1.0,0
1489584070426831237,176,1489584070423757439,,0,0,46.5184669495,6.56664419174,2.77602830977e-40,1.0,0.0,0.0,0.0,1.0,0.0,0.0,0.0,1.0,0
1489584070525751503,177,1489584070523694110,,0,0,46.5184669495,6.56664419174,2.77602830977e-40,1.0,0.0,0.0,0.0,1.0,0.0,0.0,0.0,1.0,0
1489584070626086922,178,1489584070623725468,,0,0,46.5184745789,6.56664276123,2.77602830977e-40,1.0,0.0,0.0,0.0,1.0,0.0,0.0,0.0,1.0,0
1489584070726447134,179,1489584070723694846,,0,0,46.5184745789,6.56664276123,2.77602830977e-40,1.0,0.0,0.0,0.0,1.0,0.0,0.0,0.0,1.0,0
1489584070826836147,180,1489584070823716986,,0,0,46.5184860229,6.56664800644,2.77602830977e-40,1.0,0.0,0.0,0.0,1.0,0.0,0.0,0.0,1.0,0
1489584070927046672,181,1489584070923689125,,0,0,46.5184860229,6.56664800644,2.77602830977e-40,1.0,0.0,0.0,0.0,1.0,0.0,0.0,0.0,1.0,0
1489584071027007196,182,1489584071023760170,,0,0,46.5184783936,6.56665182114,2.77602830977e-40,1.0,0.0,0.0,0.0,1.0,0.0,0.0,0.0,1.0,0
1489584071126628971,183,1489584071123693507,,0,0,46.5184783936,6.56665182114,2.77602830977e-40,1.0,0.0,0.0,0.0,1.0,0.0,0.0,0.0,1.0,0
1489584071226224965,184,1489584071223719032,,0,0,46.5184707642,6.56663799286,2.77602830977e-40,1.0,0.0,0.0,0.0,1.0,0.0,0.0,0.0,1.0,0
1489584071326751739,185,1489584071323717369,,0,0,46.5184707642,6.56663799286,2.77602830977e-40,1.0,0.0,0.0,0.0,1.0,0.0,0.0,0.0,1.0,0
1489584071427034138,186,1489584071423749247,,0,0,46.5184783936,6.56663942337,2.77602830977e-40,1.0,0.0,0.0,0.0,1.0,0.0,0.0,0.0,1.0,0
1489584071525911227,187,1489584071523704407,,0,0,46.5184783936,6.56663942337,2.77602830977e-40,1.0,0.0,0.0,0.0,1.0,0.0,0.0,0.0,1.0,0
1489584071626495813,188,1489584071623755453,,0,0,46.5184822083,6.56664133072,2.77602830977e-40,1.0,0.0,0.0,0.0,1.0,0.0,0.0,0.0,1.0,0
1489584071726852431,189,1489584071723696238,,0,0,46.5184822083,6.56664133072,2.77602830977e-40,1.0,0.0,0.0,0.0,1.0,0.0,0.0,0.0,1.0,0
1489584071826846445,190,1489584071823730981,,0,0,46.5184783936,6.56662750244,2.77602830977e-40,1.0,0.0,0.0,0.0,1.0,0.0,0.0,0.0,1.0,0
1489584071926273950,191,1489584071923698901,,0,0,46.5184783936,6.56662750244,2.77602830977e-40,1.0,0.0,0.0,0.0,1.0,0.0,0.0,0.0,1.0,0
1489584072026349682,192,1489584072023721457,,0,0,46.5184669495,6.56663799286,2.77602830977e-40,1.0,0.0,0.0,0.0,1.0,0.0,0.0,0.0,1.0,0
1489584072126302915,193,1489584072123702919,,0,0,46.5184669495,6.56663799286,2.77602830977e-40,1.0,0.0,0.0,0.0,1.0,0.0,0.0,0.0,1.0,0
1489584072226346669,194,1489584072223767090,,0,0,46.5184707642,6.56663894653,2.77602830977e-40,1.0,0.0,0.0,0.0,1.0,0.0,0.0,0.0,1.0,0
1489584072326307923,195,1489584072323728864,,0,0,46.5184707642,6.56663894653,2.77602830977e-40,1.0,0.0,0.0,0.0,1.0,0.0,0.0,0.0,1.0,0
1489584072426692509,196,1489584072423719441,,0,0,46.5184822083,6.56664276123,2.77602830977e-40,1.0,0.0,0.0,0.0,1.0,0.0,0.0,0.0,1.0,0
1489584072526392045,197,1489584072523687205,,0,0,46.5184822083,6.56664276123,2.77602830977e-40,1.0,0.0,0.0,0.0,1.0,0.0,0.0,0.0,1.0,0
1489584072625997778,198,1489584072623726063,,0,0,46.5184783936,6.56664133072,2.77602830977e-40,1.0,0.0,0.0,0.0,1.0,0.0,0.0,0.0,1.0,0
1489584072726455229,199,1489584072723693358,,0,0,46.5184783936,6.56664133072,2.77602830977e-40,1.0,0.0,0.0,0.0,1.0,0.0,0.0,0.0,1.0,0
1489584072826880805,200,1489584072823917737,,0,0,46.5184707642,6.56664180756,2.77602830977e-40,1.0,0.0,0.0,0.0,1.0,0.0,0.0,0.0,1.0,0
1489584072926372216,201,1489584072923706959,,0,0,46.5184707642,6.56664180756,2.77602830977e-40,1.0,0.0,0.0,0.0,1.0,0.0,0.0,0.0,1.0,0
1489584073026530553,202,1489584073023794828,,0,0,46.5184783936,6.5666437149,2.77602830977e-40,1.0,0.0,0.0,0.0,1.0,0.0,0.0,0.0,1.0,0
1489584073126531546,203,1489584073123803165,,0,0,46.5184783936,6.5666437149,2.77602830977e-40,1.0,0.0,0.0,0.0,1.0,0.0,0.0,0.0,1.0,0
1489584073227092642,204,1489584073223744002,,0,0,46.5184745789,6.56663799286,2.77602830977e-40,1.0,0.0,0.0,0.0,1.0,0.0,0.0,0.0,1.0,0
1489584073326945511,205,1489584073323691662,,0,0,46.5184745789,6.56663799286,2.77602830977e-40,1.0,0.0,0.0,0.0,1.0,0.0,0.0,0.0,1.0,0
1489584073426637598,206,1489584073423792134,,0,0,46.5184822083,6.56663036346,2.77602830977e-40,1.0,0.0,0.0,0.0,1.0,0.0,0.0,0.0,1.0,0
1489584073526678592,207,1489584073523702398,,0,0,46.5184822083,6.56663036346,2.77602830977e-40,1.0,0.0,0.0,0.0,1.0,0.0,0.0,0.0,1.0,0
1489584073627176720,208,1489584073623729277,,0,0,46.5184745789,6.56662130356,2.77602830977e-40,1.0,0.0,0.0,0.0,1.0,0.0,0.0,0.0,1.0,0
1489584073727048911,209,1489584073723697041,,0,0,46.5184745789,6.56662130356,2.77602830977e-40,1.0,0.0,0.0,0.0,1.0,0.0,0.0,0.0,1.0,0
1489584073826530218,210,1489584073823724336,,0,0,46.5184822083,6.56663370132,2.77602830977e-40,1.0,0.0,0.0,0.0,1.0,0.0,0.0,0.0,1.0,0
1489584073926418086,211,1489584073923694392,,0,0,46.5184822083,6.56663370132,2.77602830977e-40,1.0,0.0,0.0,0.0,1.0,0.0,0.0,0.0,1.0,0
1489584074027379338,212,1489584074023775958,,0,0,46.5184822083,6.56662940979,2.77602830977e-40,1.0,0.0,0.0,0.0,1.0,0.0,0.0,0.0,1.0,0
1489584074126717572,213,1489584074123723514,,0,0,46.5184822083,6.56662940979,2.77602830977e-40,1.0,0.0,0.0,0.0,1.0,0.0,0.0,0.0,1.0,0
1489584074226829763,214,1489584074223722945,,0,0,46.5184936523,6.56664228439,2.77602830977e-40,1.0,0.0,0.0,0.0,1.0,0.0,0.0,0.0,1.0,0
1489584074326307112,215,1489584074323695918,,0,0,46.5184936523,6.56664228439,2.77602830977e-40,1.0,0.0,0.0,0.0,1.0,0.0,0.0,0.0,1.0,0
1489584074426629771,216,1489584074423713682,,0,0,46.5185012817,6.56666517258,2.77602830977e-40,1.0,0.0,0.0,0.0,1.0,0.0,0.0,0.0,1.0,0
1489584074526458421,217,1489584074523694727,,0,0,46.5185012817,6.56666517258,2.77602830977e-40,1.0,0.0,0.0,0.0,1.0,0.0,0.0,0.0,1.0,0
1489584074627563319,218,1489584074623754314,,0,0,46.5185089111,6.56667757034,2.77602830977e-40,1.0,0.0,0.0,0.0,1.0,0.0,0.0,0.0,1.0,0
1489584074726459001,219,1489584074723694266,,0,0,46.5185089111,6.56667757034,2.77602830977e-40,1.0,0.0,0.0,0.0,1.0,0.0,0.0,0.0,1.0,0
1489584074826005464,220,1489584074823724582,,0,0,46.5184822083,6.56663942337,2.77602830977e-40,1.0,0.0,0.0,0.0,1.0,0.0,0.0,0.0,1.0,0
1489584074926752498,221,1489584074923710732,,0,0,46.5184822083,6.56663942337,2.77602830977e-40,1.0,0.0,0.0,0.0,1.0,0.0,0.0,0.0,1.0,0
1489584075026520939,222,1489584075023720319,,0,0,46.5184707642,6.56662893295,2.77602830977e-40,1.0,0.0,0.0,0.0,1.0,0.0,0.0,0.0,1.0,0
1489584075125719330,223,1489584075123685531,,0,0,46.5184707642,6.56662893295,2.77602830977e-40,1.0,0.0,0.0,0.0,1.0,0.0,0.0,0.0,1.0,0
1489584075225991000,224,1489584075223763555,,0,0,46.5184822083,6.56662988663,2.77602830977e-40,1.0,0.0,0.0,0.0,1.0,0.0,0.0,0.0,1.0,0
1489584075325814337,225,1489584075323697413,,0,0,46.5184822083,6.56662988663,2.77602830977e-40,1.0,0.0,0.0,0.0,1.0,0.0,0.0,0.0,1.0,0
1489584075426351996,226,1489584075423722729,,0,0,46.5184822083,6.56662559509,2.77602830977e-40,1.0,0.0,0.0,0.0,1.0,0.0,0.0,0.0,1.0,0
1489584075526418614,227,1489584075523710389,,0,0,46.5184822083,6.56662559509,2.77602830977e-40,1.0,0.0,0.0,0.0,1.0,0.0,0.0,0.0,1.0,0
1489584075626175597,228,1489584075623725757,,0,0,46.5184898376,6.56662321091,2.77602830977e-40,1.0,0.0,0.0,0.0,1.0,0.0,0.0,0.0,1.0,0
1489584075727284193,229,1489584075723683209,,0,0,46.5184898376,6.56662321091,2.77602830977e-40,1.0,0.0,0.0,0.0,1.0,0.0,0.0,0.0,1.0,0
1489584075826459042,230,1489584075823775609,,0,0,46.5184898376,6.56661558151,2.77602830977e-40,1.0,0.0,0.0,0.0,1.0,0.0,0.0,0.0,1.0,0
1489584075926187171,231,1489584075923708321,,0,0,46.5184898376,6.56661558151,2.77602830977e-40,1.0,0.0,0.0,0.0,1.0,0.0,0.0,0.0,1.0,0
1489584076026320612,232,1489584076023741554,,0,0,46.5184783936,6.56661510468,2.77602830977e-40,1.0,0.0,0.0,0.0,1.0,0.0,0.0,0.0,1.0,0
1489584076125852127,233,1489584076123689162,,0,0,46.5184783936,6.56661510468,2.77602830977e-40,1.0,0.0,0.0,0.0,1.0,0.0,0.0,0.0,1.0,0
1489584076226435828,234,1489584076223785780,,0,0,46.5184745789,6.56661128998,2.77602830977e-40,1.0,0.0,0.0,0.0,1.0,0.0,0.0,0.0,1.0,0
1489584076327149372,235,1489584076323746304,,0,0,46.5184745789,6.56661128998,2.77602830977e-40,1.0,0.0,0.0,0.0,1.0,0.0,0.0,0.0,1.0,0
1489584076426251929,236,1489584076423775214,,0,0,46.5184783936,6.566614151,2.77602830977e-40,1.0,0.0,0.0,0.0,1.0,0.0,0.0,0.0,1.0,0
1489584076526857088,237,1489584076523963343,,0,0,46.5184783936,6.566614151,2.77602830977e-40,1.0,0.0,0.0,0.0,1.0,0.0,0.0,0.0,1.0,0
1489584076626287978,238,1489584076623751159,,0,0,46.5184707642,6.56661176682,2.77602830977e-40,1.0,0.0,0.0,0.0,1.0,0.0,0.0,0.0,1.0,0
1489584076726409857,239,1489584076723694705,,0,0,46.5184707642,6.56661176682,2.77602830977e-40,1.0,0.0,0.0,0.0,1.0,0.0,0.0,0.0,1.0,0
1489584076829596939,240,1489584076823795437,,0,0,46.5184669495,6.56663799286,2.77602830977e-40,1.0,0.0,0.0,0.0,1.0,0.0,0.0,0.0,1.0,0
1489584076925970959,241,1489584076923698097,,0,0,46.5184669495,6.56663799286,2.77602830977e-40,1.0,0.0,0.0,0.0,1.0,0.0,0.0,0.0,1.0,0
1489584077026104972,242,1489584077023764924,,0,0,46.5184555054,6.56663036346,2.77602830977e-40,1.0,0.0,0.0,0.0,1.0,0.0,0.0,0.0,1.0,0
1489584077126152476,243,1489584077123688261,,0,0,46.5184555054,6.56663036346,2.77602830977e-40,1.0,0.0,0.0,0.0,1.0,0.0,0.0,0.0,1.0,0
1489584077226262688,244,1489584077223723213,,0,0,46.5184745789,6.56664419174,2.77602830977e-40,1.0,0.0,0.0,0.0,1.0,0.0,0.0,0.0,1.0,0
1489584077327640554,245,1489584077323711237,,0,0,46.5184745789,6.56664419174,2.77602830977e-40,1.0,0.0,0.0,0.0,1.0,0.0,0.0,0.0,1.0,0
1489584077425824050,246,1489584077423736241,,0,0,46.5184898376,6.56663608551,2.77602830977e-40,1.0,0.0,0.0,0.0,1.0,0.0,0.0,0.0,1.0,0
1489584077526318168,247,1489584077523714578,,0,0,46.5184898376,6.56663608551,2.77602830977e-40,1.0,0.0,0.0,0.0,1.0,0.0,0.0,0.0,1.0,0
1489584077627039577,248,1489584077623779425,,0,0,46.5184707642,6.5666437149,2.77602830977e-40,1.0,0.0,0.0,0.0,1.0,0.0,0.0,0.0,1.0,0
1489584077726221144,249,1489584077723689273,,0,0,46.5184707642,6.5666437149,2.77602830977e-40,1.0,0.0,0.0,0.0,1.0,0.0,0.0,0.0,1.0,0
1489584077826605418,250,1489584077823722662,,0,0,46.5184707642,6.56664991379,2.77602830977e-40,1.0,0.0,0.0,0.0,1.0,0.0,0.0,0.0,1.0,0
1489584077926830682,251,1489584077923685374,,0,0,46.5184707642,6.56664991379,2.77602830977e-40,1.0,0.0,0.0,0.0,1.0,0.0,0.0,0.0,1.0,0
1489584078027272872,252,1489584078023726836,,0,0,46.5184669495,6.56665563583,2.77602830977e-40,1.0,0.0,0.0,0.0,1.0,0.0,0.0,0.0,1.0,0
1489584078127003866,253,1489584078123697569,,0,0,46.5184669495,6.56665563583,2.77602830977e-40,1.0,0.0,0.0,0.0,1.0,0.0,0.0,0.0,1.0,0
1489584078226039496,254,1489584078223752521,,0,0,46.5184783936,6.56664276123,2.77602830977e-40,1.0,0.0,0.0,0.0,1.0,0.0,0.0,0.0,1.0,0
1489584078326011844,255,1489584078323694608,,0,0,46.5184783936,6.56664276123,2.77602830977e-40,1.0,0.0,0.0,0.0,1.0,0.0,0.0,0.0,1.0,0
1489584078426223097,256,1489584078423720341,,0,0,46.5184898376,6.5666475296,2.77602830977e-40,1.0,0.0,0.0,0.0,1.0,0.0,0.0,0.0,1.0,0
1489584078525981226,257,1489584078523679094,,0,0,46.5184898376,6.5666475296,2.77602830977e-40,1.0,0.0,0.0,0.0,1.0,0.0,0.0,0.0,1.0,0
1489584078625977428,258,1489584078623707327,,0,0,46.5184822083,6.56664800644,2.77602830977e-40,1.0,0.0,0.0,0.0,1.0,0.0,0.0,0.0,1.0,0
1489584078726050609,259,1489584078723679571,,0,0,46.5184822083,6.56664800644,2.77602830977e-40,1.0,0.0,0.0,0.0,1.0,0.0,0.0,0.0,1.0,0
1489584078826018842,260,1489584078823746918,,0,0,46.5184898376,6.56664896011,2.77602830977e-40,1.0,0.0,0.0,0.0,1.0,0.0,0.0,0.0,1.0,0
1489584078926006085,261,1489584078923675255,,0,0,46.5184898376,6.56664896011,2.77602830977e-40,1.0,0.0,0.0,0.0,1.0,0.0,0.0,0.0,1.0,0
1489584079025970776,262,1489584079023734217,,0,0,46.5184707642,6.5666642189,2.77602830977e-40,1.0,0.0,0.0,0.0,1.0,0.0,0.0,0.0,1.0,0
1489584079126073905,263,1489584079123700367,,0,0,46.5184707642,6.5666642189,2.77602830977e-40,1.0,0.0,0.0,0.0,1.0,0.0,0.0,0.0,1.0,0
1489584079227061771,264,1489584079223717089,,0,0,46.5184745789,6.56667470932,2.77602830977e-40,1.0,0.0,0.0,0.0,1.0,0.0,0.0,0.0,1.0,0
1489584079326067766,265,1489584079323698343,,0,0,46.5184745789,6.56667470932,2.77602830977e-40,1.0,0.0,0.0,0.0,1.0,0.0,0.0,0.0,1.0,0
1489584079426241728,266,1489584079423749961,,0,0,46.5184860229,6.56666088104,2.77602830977e-40,1.0,0.0,0.0,0.0,1.0,0.0,0.0,0.0,1.0,0
1489584079526015170,267,1489584079523694861,,0,0,46.5184860229,6.56666088104,2.77602830977e-40,1.0,0.0,0.0,0.0,1.0,0.0,0.0,0.0,1.0,0
1489584079625880590,268,1489584079623723093,,0,0,46.5184860229,6.56664085388,2.77602830977e-40,1.0,0.0,0.0,0.0,1.0,0.0,0.0,0.0,1.0,0
1489584079726047364,269,1489584079723695701,,0,0,46.5184860229,6.56664085388,2.77602830977e-40,1.0,0.0,0.0,0.0,1.0,0.0,0.0,0.0,1.0,0
1489584079826418149,270,1489584079823726538,,0,0,46.5184593201,6.56663370132,2.77602830977e-40,1.0,0.0,0.0,0.0,1.0,0.0,0.0,0.0,1.0,0
1489584079926077424,271,1489584079923682896,,0,0,46.5184593201,6.56663370132,2.77602830977e-40,1.0,0.0,0.0,0.0,1.0,0.0,0.0,0.0,1.0,0
1489584080025869876,272,1489584080023788004,,0,0,46.5184745789,6.56663799286,2.77602830977e-40,1.0,0.0,0.0,0.0,1.0,0.0,0.0,0.0,1.0,0
1489584080126319775,273,1489584080123708997,,0,0,46.5184745789,6.56663799286,2.77602830977e-40,1.0,0.0,0.0,0.0,1.0,0.0,0.0,0.0,1.0,0
1489584080225920039,274,1489584080223746293,,0,0,46.5184860229,6.56662416458,2.77602830977e-40,1.0,0.0,0.0,0.0,1.0,0.0,0.0,0.0,1.0,0
1489584080325970720,275,1489584080323694994,,0,0,46.5184860229,6.56662416458,2.77602830977e-40,1.0,0.0,0.0,0.0,1.0,0.0,0.0,0.0,1.0,0
1489584080426304525,276,1489584080423724998,,0,0,46.5184860229,6.56662750244,2.77602830977e-40,1.0,0.0,0.0,0.0,1.0,0.0,0.0,0.0,1.0,0
1489584080526217394,277,1489584080523696252,,0,0,46.5184860229,6.56662750244,2.77602830977e-40,1.0,0.0,0.0,0.0,1.0,0.0,0.0,0.0,1.0,0
1489584080626193648,278,1489584080623773912,,0,0,46.5184745789,6.56662750244,2.77602830977e-40,1.0,0.0,0.0,0.0,1.0,0.0,0.0,0.0,1.0,0
1489584080725814069,279,1489584080723690530,,0,0,46.5184745789,6.56662750244,2.77602830977e-40,1.0,0.0,0.0,0.0,1.0,0.0,0.0,0.0,1.0,0
1489584080826039384,280,1489584080823736471,,0,0,46.5184783936,6.56661939621,2.77602830977e-40,1.0,0.0,0.0,0.0,1.0,0.0,0.0,0.0,1.0,0
1489584080925906993,281,1489584080923716423,,0,0,46.5184783936,6.56661939621,2.77602830977e-40,1.0,0.0,0.0,0.0,1.0,0.0,0.0,0.0,1.0,0
1489584081026226058,282,1489584081023727833,,0,0,46.5184707642,6.56663131714,2.77602830977e-40,1.0,0.0,0.0,0.0,1.0,0.0,0.0,0.0,1.0,0
1489584081125831948,283,1489584081123693618,,0,0,46.5184707642,6.56663131714,2.77602830977e-40,1.0,0.0,0.0,0.0,1.0,0.0,0.0,0.0,1.0,0
1489584081227888199,284,1489584081223763361,,0,0,46.5184669495,6.5666308403,2.77602830977e-40,1.0,0.0,0.0,0.0,1.0,0.0,0.0,0.0,1.0,0
1489584081326109299,285,1489584081323688990,,0,0,46.5184669495,6.5666308403,2.77602830977e-40,1.0,0.0,0.0,0.0,1.0,0.0,0.0,0.0,1.0,0
1489584081425795761,286,1489584081423751494,,0,0,46.5184822083,6.56662321091,2.77602830977e-40,1.0,0.0,0.0,0.0,1.0,0.0,0.0,0.0,1.0,0
1489584081526513420,287,1489584081523694466,,0,0,46.5184822083,6.56662321091,2.77602830977e-40,1.0,0.0,0.0,0.0,1.0,0.0,0.0,0.0,1.0,0
1489584081626697434,288,1489584081623725876,,0,0,46.5184783936,6.5666270256,2.77602830977e-40,1.0,0.0,0.0,0.0,1.0,0.0,0.0,0.0,1.0,0
1489584081726687698,289,1489584081723694578,,0,0,46.5184783936,6.5666270256,2.77602830977e-40,1.0,0.0,0.0,0.0,1.0,0.0,0.0,0.0,1.0,0
1489584081826458848,290,1489584081823760571,,0,0,46.5184860229,6.56663417816,2.77602830977e-40,1.0,0.0,0.0,0.0,1.0,0.0,0.0,0.0,1.0,0
1489584081926236456,291,1489584081923687606,,0,0,46.5184860229,6.56663417816,2.77602830977e-40,1.0,0.0,0.0,0.0,1.0,0.0,0.0,0.0,1.0,0
1489584082026958021,292,1489584082023715110,,0,0,46.5184860229,6.56663227081,2.77602830977e-40,1.0,0.0,0.0,0.0,1.0,0.0,0.0,0.0,1.0,0
1489584082127404431,293,1489584082123693238,,0,0,46.5184860229,6.56663227081,2.77602830977e-40,1.0,0.0,0.0,0.0,1.0,0.0,0.0,0.0,1.0,0
1489584082227040893,294,1489584082223724232,,0,0,46.5184745789,6.56663751602,2.77602830977e-40,1.0,0.0,0.0,0.0,1.0,0.0,0.0,0.0,1.0,0
1489584082328040114,295,1489584082323700329,,0,0,46.5184745789,6.56663751602,2.77602830977e-40,1.0,0.0,0.0,0.0,1.0,0.0,0.0,0.0,1.0,0
1489584082426800484,296,1489584082423752729,,0,0,46.5184745789,6.5666437149,2.77602830977e-40,1.0,0.0,0.0,0.0,1.0,0.0,0.0,0.0,1.0,0
1489584082526358822,297,1489584082523683826,,0,0,46.5184745789,6.5666437149,2.77602830977e-40,1.0,0.0,0.0,0.0,1.0,0.0,0.0,0.0,1.0,0
1489584082626343461,298,1489584082623739559,,0,0,46.5184745789,6.56663656235,2.77602830977e-40,1.0,0.0,0.0,0.0,1.0,0.0,0.0,0.0,1.0,0
1489584082726203934,299,1489584082723708052,,0,0,46.5184745789,6.56663656235,2.77602830977e-40,1.0,0.0,0.0,0.0,1.0,0.0,0.0,0.0,1.0,0
1489584082826822791,300,1489584082823729618,,0,0,46.5184783936,6.56664800644,2.77602830977e-40,1.0,0.0,0.0,0.0,1.0,0.0,0.0,0.0,1.0,0
1489584082927132430,301,1489584082923703789,,0,0,46.5184783936,6.56664800644,2.77602830977e-40,1.0,0.0,0.0,0.0,1.0,0.0,0.0,0.0,1.0,0
1489584083026729830,302,1489584083023752386,,0,0,46.5184783936,6.56664276123,2.77602830977e-40,1.0,0.0,0.0,0.0,1.0,0.0,0.0,0.0,1.0,0
1489584083126790094,303,1489584083123705463,,0,0,46.5184783936,6.56664276123,2.77602830977e-40,1.0,0.0,0.0,0.0,1.0,0.0,0.0,0.0,1.0,0
1489584083226762962,304,1489584083223835987,,0,0,46.5184783936,6.56663179398,2.77602830977e-40,1.0,0.0,0.0,0.0,1.0,0.0,0.0,0.0,1.0,0
1489584083326720570,305,1489584083323712554,,0,0,46.5184783936,6.56663179398,2.77602830977e-40,1.0,0.0,0.0,0.0,1.0,0.0,0.0,0.0,1.0,0
1489584083426582345,306,1489584083423714380,,0,0,46.5184783936,6.56663656235,2.77602830977e-40,1.0,0.0,0.0,0.0,1.0,0.0,0.0,0.0,1.0,0
1489584083525897922,307,1489584083523695634,,0,0,46.5184783936,6.56663656235,2.77602830977e-40,1.0,0.0,0.0,0.0,1.0,0.0,0.0,0.0,1.0,0
1489584083626546623,308,1489584083623764752,,0,0,46.5184822083,6.56662273407,2.77602830977e-40,1.0,0.0,0.0,0.0,1.0,0.0,0.0,0.0,1.0,0
1489584083726730220,309,1489584083724145953,,0,0,46.5184822083,6.56662273407,2.77602830977e-40,1.0,0.0,0.0,0.0,1.0,0.0,0.0,0.0,1.0,0
1489584083826851370,310,1489584083823727364,,0,0,46.5184822083,6.56660795212,2.77602830977e-40,1.0,0.0,0.0,0.0,1.0,0.0,0.0,0.0,1.0,0
1489584083926963613,311,1489584083923695076,,0,0,46.5184822083,6.56660795212,2.77602830977e-40,1.0,0.0,0.0,0.0,1.0,0.0,0.0,0.0,1.0,0
1489584084026435284,312,1489584084023712736,,0,0,46.5184822083,6.56659698486,2.77602830977e-40,1.0,0.0,0.0,0.0,1.0,0.0,0.0,0.0,1.0,0
1489584084126070809,313,1489584084123690552,,0,0,46.5184822083,6.56659698486,2.77602830977e-40,1.0,0.0,0.0,0.0,1.0,0.0,0.0,0.0,1.0,0
1489584084226159979,314,1489584084223774618,,0,0,46.5184783936,6.56659269333,2.77602830977e-40,1.0,0.0,0.0,0.0,1.0,0.0,0.0,0.0,1.0,0
1489584084326354670,315,1489584084323682383,,0,0,46.5184783936,6.56659269333,2.77602830977e-40,1.0,0.0,0.0,0.0,1.0,0.0,0.0,0.0,1.0,0
1489584084429472846,316,1489584084423731553,,0,0,46.5184745789,6.56659126282,2.77602830977e-40,1.0,0.0,0.0,0.0,1.0,0.0,0.0,0.0,1.0,0
1489584084525874366,317,1489584084523694942,,0,0,46.5184745789,6.56659126282,2.77602830977e-40,1.0,0.0,0.0,0.0,1.0,0.0,0.0,0.0,1.0,0
1489584084629208844,318,1489584084623725050,,0,0,46.5184745789,6.56657123566,2.77602830977e-40,1.0,0.0,0.0,0.0,1.0,0.0,0.0,0.0,1.0,0
1489584084726160935,319,1489584084723687241,,0,0,46.5184745789,6.56657123566,2.77602830977e-40,1.0,0.0,0.0,0.0,1.0,0.0,0.0,0.0,1.0,0
1489584084826227866,320,1489584084823787193,,0,0,46.5184822083,6.56662797928,2.77602830977e-40,1.0,0.0,0.0,0.0,1.0,0.0,0.0,0.0,1.0,0
1489584084926338599,321,1489584084923717978,,0,0,46.5184822083,6.56662797928,2.77602830977e-40,1.0,0.0,0.0,0.0,1.0,0.0,0.0,0.0,1.0,0
1489584085026598758,322,1489584085023718502,,0,0,46.5184822083,6.5666270256,2.77602830977e-40,1.0,0.0,0.0,0.0,1.0,0.0,0.0,0.0,1.0,0
1489584085126379908,323,1489584085123696527,,0,0,46.5184822083,6.5666270256,2.77602830977e-40,1.0,0.0,0.0,0.0,1.0,0.0,0.0,0.0,1.0,0
1489584085226843088,324,1489584085223719291,,0,0,46.5184822083,6.56662559509,2.77602830977e-40,1.0,0.0,0.0,0.0,1.0,0.0,0.0,0.0,1.0,0
1489584085326079604,325,1489584085323711170,,0,0,46.5184822083,6.56662559509,2.77602830977e-40,1.0,0.0,0.0,0.0,1.0,0.0,0.0,0.0,1.0,0
1489584085426632315,326,1489584085423753257,,0,0,46.5184783936,6.5666308403,2.77602830977e-40,1.0,0.0,0.0,0.0,1.0,0.0,0.0,0.0,1.0,0
1489584085527028672,327,1489584085523678052,,0,0,46.5184783936,6.5666308403,2.77602830977e-40,1.0,0.0,0.0,0.0,1.0,0.0,0.0,0.0,1.0,0
1489584085626434510,328,1489584085623750452,,0,0,46.5184783936,6.56662797928,2.77602830977e-40,1.0,0.0,0.0,0.0,1.0,0.0,0.0,0.0,1.0,0
1489584085726848211,329,1489584085723700455,,0,0,46.5184783936,6.56662797928,2.77602830977e-40,1.0,0.0,0.0,0.0,1.0,0.0,0.0,0.0,1.0,0
1489584085826167434,330,1489584085823728324,,0,0,46.5184783936,6.56662464142,2.77602830977e-40,1.0,0.0,0.0,0.0,1.0,0.0,0.0,0.0,1.0,0
1489584085927371499,331,1489584085923712754,,0,0,46.5184783936,6.56662464142,2.77602830977e-40,1.0,0.0,0.0,0.0,1.0,0.0,0.0,0.0,1.0,0
1489584086027003274,332,1489584086023755727,,0,0,46.5184745789,6.56662988663,2.77602830977e-40,1.0,0.0,0.0,0.0,1.0,0.0,0.0,0.0,1.0,0
1489584086126782236,333,1489584086123687501,,0,0,46.5184745789,6.56662988663,2.77602830977e-40,1.0,0.0,0.0,0.0,1.0,0.0,0.0,0.0,1.0,0
1489584086227325677,334,1489584086224030317,,0,0,46.5184783936,6.56662416458,2.77602830977e-40,1.0,0.0,0.0,0.0,1.0,0.0,0.0,0.0,1.0,0
1489584086326738806,335,1489584086323694801,,0,0,46.5184783936,6.56662416458,2.77602830977e-40,1.0,0.0,0.0,0.0,1.0,0.0,0.0,0.0,1.0,0
1489584086428043756,336,1489584086424196678,,0,0,46.5184745789,6.56662797928,2.77602830977e-40,1.0,0.0,0.0,0.0,1.0,0.0,0.0,0.0,1.0,0
1489584086526785689,337,1489584086523718141,,0,0,46.5184745789,6.56662797928,2.77602830977e-40,1.0,0.0,0.0,0.0,1.0,0.0,0.0,0.0,1.0,0
1489584086626197204,338,1489584086623782259,,0,0,46.5184783936,6.56662559509,2.77602830977e-40,1.0,0.0,0.0,0.0,1.0,0.0,0.0,0.0,1.0,0
1489584086727944913,339,1489584086723699295,,0,0,46.5184783936,6.56662559509,2.77602830977e-40,1.0,0.0,0.0,0.0,1.0,0.0,0.0,0.0,1.0,0
1489584086826206013,340,1489584086823706746,,0,0,46.5184898376,6.56661510468,2.77602830977e-40,1.0,0.0,0.0,0.0,1.0,0.0,0.0,0.0,1.0,0
1489584086929062210,341,1489584086923694042,,0,0,46.5184898376,6.56661510468,2.77602830977e-40,1.0,0.0,0.0,0.0,1.0,0.0,0.0,0.0,1.0,0
1489584087026327948,342,1489584087023727014,,0,0,46.5185012817,6.56661176682,2.77602830977e-40,1.0,0.0,0.0,0.0,1.0,0.0,0.0,0.0,1.0,0
1489584087129139457,343,1489584087123690768,,0,0,46.5185012817,6.56661176682,2.77602830977e-40,1.0,0.0,0.0,0.0,1.0,0.0,0.0,0.0,1.0,0
1489584087225873112,344,1489584087223757438,,0,0,46.5184936523,6.56661748886,2.77602830977e-40,1.0,0.0,0.0,0.0,1.0,0.0,0.0,0.0,1.0,0
1489584087327222280,345,1489584087323712286,,0,0,46.5184936523,6.56661748886,2.77602830977e-40,1.0,0.0,0.0,0.0,1.0,0.0,0.0,0.0,1.0,0
1489584087425973588,346,1489584087423719529,,0,0,46.5184898376,6.56661939621,2.77602830977e-40,1.0,0.0,0.0,0.0,1.0,0.0,0.0,0.0,1.0,0
1489584087526451664,347,1489584087523704897,,0,0,46.5184898376,6.56661939621,2.77602830977e-40,1.0,0.0,0.0,0.0,1.0,0.0,0.0,0.0,1.0,0
1489584087625886304,348,1489584087623740213,,0,0,46.5184898376,6.56661844254,2.77602830977e-40,1.0,0.0,0.0,0.0,1.0,0.0,0.0,0.0,1.0,0
1489584087728738074,349,1489584087723695113,,0,0,46.5184898376,6.56661844254,2.77602830977e-40,1.0,0.0,0.0,0.0,1.0,0.0,0.0,0.0,1.0,0
1489584087826450060,350,1489584087823759960,,0,0,46.5184860229,6.56662034988,2.77602830977e-40,1.0,0.0,0.0,0.0,1.0,0.0,0.0,0.0,1.0,0
1489584087926817043,351,1489584087923813349,,0,0,46.5184860229,6.56662034988,2.77602830977e-40,1.0,0.0,0.0,0.0,1.0,0.0,0.0,0.0,1.0,0
1489584088026625536,352,1489584088023733509,,0,0,46.5184860229,6.5666217804,2.77602830977e-40,1.0,0.0,0.0,0.0,1.0,0.0,0.0,0.0,1.0,0
1489584088126502884,353,1489584088123688878,,0,0,46.5184860229,6.5666217804,2.77602830977e-40,1.0,0.0,0.0,0.0,1.0,0.0,0.0,0.0,1.0,0
1489584088226228044,354,1489584088223740079,,0,0,46.5184898376,6.56661939621,2.77602830977e-40,1.0,0.0,0.0,0.0,1.0,0.0,0.0,0.0,1.0,0
1489584088326920755,355,1489584088323702739,,0,0,46.5184898376,6.56661939621,2.77602830977e-40,1.0,0.0,0.0,0.0,1.0,0.0,0.0,0.0,1.0,0
1489584088426240239,356,1489584088423772118,,0,0,46.5184898376,6.56661510468,2.77602830977e-40,1.0,0.0,0.0,0.0,1.0,0.0,0.0,0.0,1.0,0
1489584088528761020,357,1489584088523709466,,0,0,46.5184898376,6.56661510468,2.77602830977e-40,1.0,0.0,0.0,0.0,1.0,0.0,0.0,0.0,1.0,0
1489584088625995403,358,1489584088623708271,,0,0,46.5184936523,6.566614151,2.77602830977e-40,1.0,0.0,0.0,0.0,1.0,0.0,0.0,0.0,1.0,0
1489584088727784102,359,1489584088723697233,,0,0,46.5184936523,6.566614151,2.77602830977e-40,1.0,0.0,0.0,0.0,1.0,0.0,0.0,0.0,1.0,0
1489584088827243690,360,1489584088823723383,,0,0,46.5184936523,6.56660985947,2.77602830977e-40,1.0,0.0,0.0,0.0,1.0,0.0,0.0,0.0,1.0,0
1489584088926154841,361,1489584088923695574,,0,0,46.5184936523,6.56660985947,2.77602830977e-40,1.0,0.0,0.0,0.0,1.0,0.0,0.0,0.0,1.0,0
1489584089026034533,362,1489584089023764692,,0,0,46.5184898376,6.56661510468,2.77602830977e-40,1.0,0.0,0.0,0.0,1.0,0.0,0.0,0.0,1.0,0
1489584089126085943,363,1489584089123687821,,0,0,46.5184898376,6.56661510468,2.77602830977e-40,1.0,0.0,0.0,0.0,1.0,0.0,0.0,0.0,1.0,0
1489584089226992351,364,1489584089223736158,,0,0,46.5184898376,6.56661367416,2.77602830977e-40,1.0,0.0,0.0,0.0,1.0,0.0,0.0,0.0,1.0,0
1489584089325892409,365,1489584089323682412,,0,0,46.5184898376,6.56661367416,2.77602830977e-40,1.0,0.0,0.0,0.0,1.0,0.0,0.0,0.0,1.0,0
1489584089431239592,366,1489584089423721114,,0,0,46.5184898376,6.56661605835,2.77602830977e-40,1.0,0.0,0.0,0.0,1.0,0.0,0.0,0.0,1.0,0
1489584089526678665,367,1489584089523697419,,0,0,46.5184898376,6.56661605835,2.77602830977e-40,1.0,0.0,0.0,0.0,1.0,0.0,0.0,0.0,1.0,0
1489584089628565593,368,1489584089623776225,,0,0,46.5184860229,6.56661939621,2.77602830977e-40,1.0,0.0,0.0,0.0,1.0,0.0,0.0,0.0,1.0,0
1489584089729743251,369,1489584089723687427,,0,0,46.5184860229,6.56661939621,2.77602830977e-40,1.0,0.0,0.0,0.0,1.0,0.0,0.0,0.0,1.0,0
1489584089827235238,370,1489584089823723472,,0,0,46.5184860229,6.56662034988,2.77602830977e-40,1.0,0.0,0.0,0.0,1.0,0.0,0.0,0.0,1.0,0
1489584089926849304,371,1489584089923696809,,0,0,46.5184860229,6.56662034988,2.77602830977e-40,1.0,0.0,0.0,0.0,1.0,0.0,0.0,0.0,1.0,0
1489584090029929616,372,1489584090023742230,,0,0,46.5184822083,6.5666217804,2.77602830977e-40,1.0,0.0,0.0,0.0,1.0,0.0,0.0,0.0,1.0,0
1489584090126302438,373,1489584090123695202,,0,0,46.5184822083,6.5666217804,2.77602830977e-40,1.0,0.0,0.0,0.0,1.0,0.0,0.0,0.0,1.0,0
1489584090229020458,374,1489584090223749060,,0,0,46.5184822083,6.56662082672,2.77602830977e-40,1.0,0.0,0.0,0.0,1.0,0.0,0.0,0.0,1.0,0
1489584090326734476,375,1489584090323690001,,0,0,46.5184822083,6.56662082672,2.77602830977e-40,1.0,0.0,0.0,0.0,1.0,0.0,0.0,0.0,1.0,0
1489584090427328385,376,1489584090423722453,,0,0,46.5184783936,6.56662321091,2.77602830977e-40,1.0,0.0,0.0,0.0,1.0,0.0,0.0,0.0,1.0,0
1489584090526072609,377,1489584090523701675,,0,0,46.5184783936,6.56662321091,2.77602830977e-40,1.0,0.0,0.0,0.0,1.0,0.0,0.0,0.0,1.0,0
1489584090628644432,378,1489584090623741731,,0,0,46.5184822083,6.56662225723,2.77602830977e-40,1.0,0.0,0.0,0.0,1.0,0.0,0.0,0.0,1.0,0
1489584090726147929,379,1489584090723686006,,0,0,46.5184822083,6.56662225723,2.77602830977e-40,1.0,0.0,0.0,0.0,1.0,0.0,0.0,0.0,1.0,0
1489584090827618764,380,1489584090823779551,,0,0,46.5184783936,6.56662511826,2.77602830977e-40,1.0,0.0,0.0,0.0,1.0,0.0,0.0,0.0,1.0,0
1489584090929472619,381,1489584090923741586,,0,0,46.5184783936,6.56662511826,2.77602830977e-40,1.0,0.0,0.0,0.0,1.0,0.0,0.0,0.0,1.0,0
1489584091026267263,382,1489584091023737006,,0,0,46.5184745789,6.56662845612,2.77602830977e-40,1.0,0.0,0.0,0.0,1.0,0.0,0.0,0.0,1.0,0
1489584091126712578,383,1489584091123703520,,0,0,46.5184745789,6.56662845612,2.77602830977e-40,1.0,0.0,0.0,0.0,1.0,0.0,0.0,0.0,1.0,0
1489584091228268205,384,1489584091223719722,,0,0,46.5184783936,6.56662654877,2.77602830977e-40,1.0,0.0,0.0,0.0,1.0,0.0,0.0,0.0,1.0,0
1489584091326510971,385,1489584091323695924,,0,0,46.5184783936,6.56662654877,2.77602830977e-40,1.0,0.0,0.0,0.0,1.0,0.0,0.0,0.0,1.0,0
1489584091425838685,386,1489584091423784886,,0,0,46.5184783936,6.56663036346,2.77602830977e-40,1.0,0.0,0.0,0.0,1.0,0.0,0.0,0.0,1.0,0
1489584091527023426,387,1489584091523702494,,0,0,46.5184783936,6.56663036346,2.77602830977e-40,1.0,0.0,0.0,0.0,1.0,0.0,0.0,0.0,1.0,0
1489584091626431399,388,1489584091623743591,,0,0,46.5184745789,6.56663036346,2.77602830977e-40,1.0,0.0,0.0,0.0,1.0,0.0,0.0,0.0,1.0,0
1489584091727379370,389,1489584091723687918,,0,0,46.5184745789,6.56663036346,2.77602830977e-40,1.0,0.0,0.0,0.0,1.0,0.0,0.0,0.0,1.0,0
1489584091826895208,390,1489584091823722609,,0,0,46.5184783936,6.56662893295,2.77602830977e-40,1.0,0.0,0.0,0.0,1.0,0.0,0.0,0.0,1.0,0
1489584091929223385,391,1489584091923686467,,0,0,46.5184783936,6.56662893295,2.77602830977e-40,1.0,0.0,0.0,0.0,1.0,0.0,0.0,0.0,1.0,0
1489584092026563185,392,1489584092023779908,,0,0,46.5184783936,6.56662893295,2.77602830977e-40,1.0,0.0,0.0,0.0,1.0,0.0,0.0,0.0,1.0,0
1489584092125976054,393,1489584092123684547,,0,0,46.5184783936,6.56662893295,2.77602830977e-40,1.0,0.0,0.0,0.0,1.0,0.0,0.0,0.0,1.0,0
1489584092228437773,394,1489584092223724655,,0,0,46.5184745789,6.56663370132,2.77602830977e-40,1.0,0.0,0.0,0.0,1.0,0.0,0.0,0.0,1.0,0
1489584092329080223,395,1489584092323702784,,0,0,46.5184745789,6.56663370132,2.77602830977e-40,1.0,0.0,0.0,0.0,1.0,0.0,0.0,0.0,1.0,0
1489584092426272211,396,1489584092423720548,,0,0,46.5184783936,6.56663036346,2.77602830977e-40,1.0,0.0,0.0,0.0,1.0,0.0,0.0,0.0,1.0,0
1489584092529838511,397,1489584092523693989,,0,0,46.5184783936,6.56663036346,2.77602830977e-40,1.0,0.0,0.0,0.0,1.0,0.0,0.0,0.0,1.0,0
1489584092628921849,398,1489584092623708316,,0,0,46.5184822083,6.5666270256,2.77602830977e-40,1.0,0.0,0.0,0.0,1.0,0.0,0.0,0.0,1.0,0
1489584092727375241,399,1489584092723676653,,0,0,46.5184822083,6.5666270256,2.77602830977e-40,1.0,0.0,0.0,0.0,1.0,0.0,0.0,0.0,1.0,0
1489584092826446756,400,1489584092823762125,,0,0,46.5184822083,6.56662893295,2.77602830977e-40,1.0,0.0,0.0,0.0,1.0,0.0,0.0,0.0,1.0,0
1489584092928809465,401,1489584092923693379,,0,0,46.5184822083,6.56662893295,2.77602830977e-40,1.0,0.0,0.0,0.0,1.0,0.0,0.0,0.0,1.0,0
1489584093028031188,402,1489584093023719841,,0,0,46.5184783936,6.56663322449,2.77602830977e-40,1.0,0.0,0.0,0.0,1.0,0.0,0.0,0.0,1.0,0
1489584093126892288,403,1489584093123694897,,0,0,46.5184783936,6.56663322449,2.77602830977e-40,1.0,0.0,0.0,0.0,1.0,0.0,0.0,0.0,1.0,0
1489584093230438901,404,1489584093223736723,,0,0,46.5184783936,6.56663513184,2.77602830977e-40,1.0,0.0,0.0,0.0,1.0,0.0,0.0,0.0,1.0,0
1489584093329626978,405,1489584093323703290,,0,0,46.5184783936,6.56663513184,2.77602830977e-40,1.0,0.0,0.0,0.0,1.0,0.0,0.0,0.0,1.0,0
1489584093428997400,406,1489584093423697877,,0,0,46.5184707642,6.56663990021,2.77602830977e-40,1.0,0.0,0.0,0.0,1.0,0.0,0.0,0.0,1.0,0
1489584093526176262,407,1489584093523696057,,0,0,46.5184707642,6.56663990021,2.77602830977e-40,1.0,0.0,0.0,0.0,1.0,0.0,0.0,0.0,1.0,0
1489584093629255376,408,1489584093623771894,,0,0,46.5184707642,6.56664037704,2.77602830977e-40,1.0,0.0,0.0,0.0,1.0,0.0,0.0,0.0,1.0,0
1489584093729565691,409,1489584093723656846,,0,0,46.5184707642,6.56664037704,2.77602830977e-40,1.0,0.0,0.0,0.0,1.0,0.0,0.0,0.0,1.0,0
1489584093826367262,410,1489584093823739350,,0,0,46.5184783936,6.56663751602,2.77602830977e-40,1.0,0.0,0.0,0.0,1.0,0.0,0.0,0.0,1.0,0
1489584093926911067,411,1489584093923699926,,0,0,46.5184783936,6.56663751602,2.77602830977e-40,1.0,0.0,0.0,0.0,1.0,0.0,0.0,0.0,1.0,0
1489584094027557997,412,1489584094023724253,,0,0,46.5184745789,6.56663990021,2.77602830977e-40,1.0,0.0,0.0,0.0,1.0,0.0,0.0,0.0,1.0,0
1489584094126314149,413,1489584094123680611,,0,0,46.5184745789,6.56663990021,2.77602830977e-40,1.0,0.0,0.0,0.0,1.0,0.0,0.0,0.0,1.0,0
1489584094226398996,414,1489584094223742802,,0,0,46.5184745789,6.56663894653,2.77602830977e-40,1.0,0.0,0.0,0.0,1.0,0.0,0.0,0.0,1.0,0
1489584094326431448,415,1489584094323708014,,0,0,46.5184745789,6.56663894653,2.77602830977e-40,1.0,0.0,0.0,0.0,1.0,0.0,0.0,0.0,1.0,0
1489584094427117700,416,1489584094423780466,,0,0,46.5184745789,6.56664180756,2.77602830977e-40,1.0,0.0,0.0,0.0,1.0,0.0,0.0,0.0,1.0,0
1489584094527203381,417,1489584094524560833,,0,0,46.5184745789,6.56664180756,2.77602830977e-40,1.0,0.0,0.0,0.0,1.0,0.0,0.0,0.0,1.0,0
1489584094626055626,418,1489584094623732713,,0,0,46.5184745789,6.56664085388,2.77602830977e-40,1.0,0.0,0.0,0.0,1.0,0.0,0.0,0.0,1.0,0
1489584094729652968,419,1489584094723696519,,0,0,46.5184745789,6.56664085388,2.77602830977e-40,1.0,0.0,0.0,0.0,1.0,0.0,0.0,0.0,1.0,0
1489584094830472970,420,1489584094823719491,,0,0,46.5184745789,6.56664800644,2.77602830977e-40,1.0,0.0,0.0,0.0,1.0,0.0,0.0,0.0,1.0,0
1489584094926211887,421,1489584094923688714,,0,0,46.5184745789,6.56664800644,2.77602830977e-40,1.0,0.0,0.0,0.0,1.0,0.0,0.0,0.0,1.0,0
1489584095027112618,422,1489584095023711373,,0,0,46.5184745789,6.56664276123,2.77602830977e-40,1.0,0.0,0.0,0.0,1.0,0.0,0.0,0.0,1.0,0
1489584095125968978,423,1489584095123689711,,0,0,46.5184745789,6.56664276123,2.77602830977e-40,1.0,0.0,0.0,0.0,1.0,0.0,0.0,0.0,1.0,0
1489584095229403560,424,1489584095223768100,,0,0,46.5184745789,6.56664514542,2.77602830977e-40,1.0,0.0,0.0,0.0,1.0,0.0,0.0,0.0,1.0,0
1489584095325934975,425,1489584095323686333,,0,0,46.5184745789,6.56664514542,2.77602830977e-40,1.0,0.0,0.0,0.0,1.0,0.0,0.0,0.0,1.0,0
1489584095426670394,426,1489584095423722222,,0,0,46.5184707642,6.56663322449,2.77602830977e-40,1.0,0.0,0.0,0.0,1.0,0.0,0.0,0.0,1.0,0
1489584095526253992,427,1489584095523702225,,0,0,46.5184707642,6.56663322449,2.77602830977e-40,1.0,0.0,0.0,0.0,1.0,0.0,0.0,0.0,1.0,0
1489584095626322121,428,1489584095623728219,,0,0,46.5184707642,6.56659507751,2.77602830977e-40,1.0,0.0,0.0,0.0,1.0,0.0,0.0,0.0,1.0,0
1489584095726739572,429,1489584095723727493,,0,0,46.5184707642,6.56659507751,2.77602830977e-40,1.0,0.0,0.0,0.0,1.0,0.0,0.0,0.0,1.0,0
1489584095827329575,430,1489584095823721195,,0,0,46.5184745789,6.56660652161,2.77602830977e-40,1.0,0.0,0.0,0.0,1.0,0.0,0.0,0.0,1.0,0
1489584095929175826,431,1489584095924500364,,0,0,46.5184745789,6.56660652161,2.77602830977e-40,1.0,0.0,0.0,0.0,1.0,0.0,0.0,0.0,1.0,0
1489584096029237861,432,1489584096023975629,,0,0,46.5184669495,6.56659984589,2.77602830977e-40,1.0,0.0,0.0,0.0,1.0,0.0,0.0,0.0,1.0,0
1489584096129530364,433,1489584096123691675,,0,0,46.5184669495,6.56659984589,2.77602830977e-40,1.0,0.0,0.0,0.0,1.0,0.0,0.0,0.0,1.0,0
1489584096227295788,434,1489584096223728241,,0,0,46.5184745789,6.56660747528,2.77602830977e-40,1.0,0.0,0.0,0.0,1.0,0.0,0.0,0.0,1.0,0
1489584096328724800,435,1489584096323703766,,0,0,46.5184745789,6.56660747528,2.77602830977e-40,1.0,0.0,0.0,0.0,1.0,0.0,0.0,0.0,1.0,0
1489584096429235323,436,1489584096423726061,,0,0,46.5184898376,6.56662559509,2.77602830977e-40,1.0,0.0,0.0,0.0,1.0,0.0,0.0,0.0,1.0,0
1489584096526957153,437,1489584096523689242,,0,0,46.5184898376,6.56662559509,2.77602830977e-40,1.0,0.0,0.0,0.0,1.0,0.0,0.0,0.0,1.0,0
1489584096629906371,438,1489584096623773256,,0,0,46.5184898376,6.56662034988,2.77602830977e-40,1.0,0.0,0.0,0.0,1.0,0.0,0.0,0.0,1.0,0
1489584096726869557,439,1489584096723694093,,0,0,46.5184898376,6.56662034988,2.77602830977e-40,1.0,0.0,0.0,0.0,1.0,0.0,0.0,0.0,1.0,0
1489584096828280965,440,1489584096823724669,,0,0,46.5184822083,6.56658744812,2.77602830977e-40,1.0,0.0,0.0,0.0,1.0,0.0,0.0,0.0,1.0,0
1489584096930139090,441,1489584096923704413,,0,0,46.5184822083,6.56658744812,2.77602830977e-40,1.0,0.0,0.0,0.0,1.0,0.0,0.0,0.0,1.0,0
1489584097027392848,442,1489584097023765927,,0,0,46.5184860229,6.56659507751,2.77602830977e-40,1.0,0.0,0.0,0.0,1.0,0.0,0.0,0.0,1.0,0
1489584097126219312,443,1489584097123729056,,0,0,46.5184860229,6.56659507751,2.77602830977e-40,1.0,0.0,0.0,0.0,1.0,0.0,0.0,0.0,1.0,0
1489584097229718061,444,1489584097223724268,,0,0,46.518497467,6.56659698486,2.77602830977e-40,1.0,0.0,0.0,0.0,1.0,0.0,0.0,0.0,1.0,0
1489584097326009945,445,1489584097323698698,,0,0,46.518497467,6.56659698486,2.77602830977e-40,1.0,0.0,0.0,0.0,1.0,0.0,0.0,0.0,1.0,0
1489584097426526927,446,1489584097423811775,,0,0,46.5184860229,6.56659841537,2.77602830977e-40,1.0,0.0,0.0,0.0,1.0,0.0,0.0,0.0,1.0,0
1489584097526183181,447,1489584097523710581,,0,0,46.5184860229,6.56659841537,2.77602830977e-40,1.0,0.0,0.0,0.0,1.0,0.0,0.0,0.0,1.0,0
1489584097626987246,448,1489584097623714543,,0,0,46.5184898376,6.56658267975,2.77602830977e-40,1.0,0.0,0.0,0.0,1.0,0.0,0.0,0.0,1.0,0
1489584097726413397,449,1489584097723701734,,0,0,46.5184898376,6.56658267975,2.77602830977e-40,1.0,0.0,0.0,0.0,1.0,0.0,0.0,0.0,1.0,0
1489584097826394963,450,1489584097823762154,,0,0,46.5185012817,6.56660556793,2.77602830977e-40,1.0,0.0,0.0,0.0,1.0,0.0,0.0,0.0,1.0,0
1489584097927943089,451,1489584097923748825,,0,0,46.5185012817,6.56660556793,2.77602830977e-40,1.0,0.0,0.0,0.0,1.0,0.0,0.0,0.0,1.0,0
1489584098027344292,452,1489584098023721224,,0,0,46.5185012817,6.56660604477,2.77602830977e-40,1.0,0.0,0.0,0.0,1.0,0.0,0.0,0.0,1.0,0
1489584098125958204,453,1489584098123682062,,0,0,46.5185012817,6.56660604477,2.77602830977e-40,1.0,0.0,0.0,0.0,1.0,0.0,0.0,0.0,1.0,0
1489584098226078885,454,1489584098223775971,,0,0,46.5185127258,6.56661748886,2.77602830977e-40,1.0,0.0,0.0,0.0,1.0,0.0,0.0,0.0,1.0,0
1489584098327033001,455,1489584098323712798,,0,0,46.5185127258,6.56661748886,2.77602830977e-40,1.0,0.0,0.0,0.0,1.0,0.0,0.0,0.0,1.0,0
1489584098429432637,456,1489584098423751343,,0,0,46.5185012817,6.5666179657,2.77602830977e-40,1.0,0.0,0.0,0.0,1.0,0.0,0.0,0.0,1.0,0
1489584098529085037,457,1489584098523696660,,0,0,46.5185012817,6.5666179657,2.77602830977e-40,1.0,0.0,0.0,0.0,1.0,0.0,0.0,0.0,1.0,0
1489584098627857595,458,1489584098623773955,,0,0,46.518497467,6.56660079956,2.77602830977e-40,1.0,0.0,0.0,0.0,1.0,0.0,0.0,0.0,1.0,0
1489584098726213695,459,1489584098723683803,,0,0,46.518497467,6.56660079956,2.77602830977e-40,1.0,0.0,0.0,0.0,1.0,0.0,0.0,0.0,1.0,0
1489584098827030155,460,1489584098823734587,,0,0,46.5185050964,6.56661605835,2.77602830977e-40,1.0,0.0,0.0,0.0,1.0,0.0,0.0,0.0,1.0,0
1489584098929980675,461,1489584098923692404,,0,0,46.5185050964,6.56661605835,2.77602830977e-40,1.0,0.0,0.0,0.0,1.0,0.0,0.0,0.0,1.0,0
1489584099027439798,462,1489584099023755949,,0,0,46.5185089111,6.56661891937,2.77602830977e-40,1.0,0.0,0.0,0.0,1.0,0.0,0.0,0.0,1.0,0
1489584099129186726,463,1489584099123869130,,0,0,46.5185089111,6.56661891937,2.77602830977e-40,1.0,0.0,0.0,0.0,1.0,0.0,0.0,0.0,1.0,0
1489584099226823660,464,1489584099223734498,,0,0,46.518497467,6.56660842896,2.77602830977e-40,1.0,0.0,0.0,0.0,1.0,0.0,0.0,0.0,1.0,0
1489584099327124184,465,1489584099323752731,,0,0,46.518497467,6.56660842896,2.77602830977e-40,1.0,0.0,0.0,0.0,1.0,0.0,0.0,0.0,1.0,0
1489584099427034969,466,1489584099423767422,,0,0,46.5184860229,6.56660985947,2.77602830977e-40,1.0,0.0,0.0,0.0,1.0,0.0,0.0,0.0,1.0,0
1489584099526675390,467,1489584099523693363,,0,0,46.5184860229,6.56660985947,2.77602830977e-40,1.0,0.0,0.0,0.0,1.0,0.0,0.0,0.0,1.0,0
1489584099628440131,468,1489584099623747169,,0,0,46.5184898376,6.56661987305,2.77602830977e-40,1.0,0.0,0.0,0.0,1.0,0.0,0.0,0.0,1.0,0
1489584099726881595,469,1489584099723770037,,0,0,46.5184898376,6.56661987305,2.77602830977e-40,1.0,0.0,0.0,0.0,1.0,0.0,0.0,0.0,1.0,0
1489584099826701755,470,1489584099823786187,,0,0,46.5184936523,6.56662273407,2.77602830977e-40,1.0,0.0,0.0,0.0,1.0,0.0,0.0,0.0,1.0,0
1489584099930755659,471,1489584099923680722,,0,0,46.5184936523,6.56662273407,2.77602830977e-40,1.0,0.0,0.0,0.0,1.0,0.0,0.0,0.0,1.0,0
1489584100026237024,472,1489584100023719736,,0,0,46.518497467,6.56660985947,2.77602830977e-40,1.0,0.0,0.0,0.0,1.0,0.0,0.0,0.0,1.0,0
1489584100126209632,473,1489584100123688855,,0,0,46.518497467,6.56660985947,2.77602830977e-40,1.0,0.0,0.0,0.0,1.0,0.0,0.0,0.0,1.0,0
1489584100227266717,474,1489584100223793910,,0,0,46.5184936523,6.56660604477,2.77602830977e-40,1.0,0.0,0.0,0.0,1.0,0.0,0.0,0.0,1.0,0
1489584100327746252,475,1489584100323681258,,0,0,46.5184936523,6.56660604477,2.77602830977e-40,1.0,0.0,0.0,0.0,1.0,0.0,0.0,0.0,1.0,0
1489584100427848911,476,1489584100423709178,,0,0,46.5184936523,6.56661987305,2.77602830977e-40,1.0,0.0,0.0,0.0,1.0,0.0,0.0,0.0,1.0,0
1489584100527605478,477,1489584100523678244,,0,0,46.5184936523,6.56661987305,2.77602830977e-40,1.0,0.0,0.0,0.0,1.0,0.0,0.0,0.0,1.0,0
1489584100626511317,478,1489584100623754602,,0,0,46.518497467,6.56662654877,2.77602830977e-40,1.0,0.0,0.0,0.0,1.0,0.0,0.0,0.0,1.0,0
1489584100726054238,479,1489584100723686116,,0,0,46.518497467,6.56662654877,2.77602830977e-40,1.0,0.0,0.0,0.0,1.0,0.0,0.0,0.0,1.0,0
1489584100826244970,480,1489584100823732839,,0,0,46.5185050964,6.56663560867,2.77602830977e-40,1.0,0.0,0.0,0.0,1.0,0.0,0.0,0.0,1.0,0
1489584100926395391,481,1489584100923685082,,0,0,46.5185050964,6.56663560867,2.77602830977e-40,1.0,0.0,0.0,0.0,1.0,0.0,0.0,0.0,1.0,0
1489584101026240499,482,1489584101023767429,,0,0,46.5185089111,6.56662321091,2.77602830977e-40,1.0,0.0,0.0,0.0,1.0,0.0,0.0,0.0,1.0,0
1489584101126248315,483,1489584101123693058,,0,0,46.5185089111,6.56662321091,2.77602830977e-40,1.0,0.0,0.0,0.0,1.0,0.0,0.0,0.0,1.0,0
1489584101226069413,484,1489584101223718479,,0,0,46.5185012817,6.56660842896,2.77602830977e-40,1.0,0.0,0.0,0.0,1.0,0.0,0.0,0.0,1.0,0
1489584101333316020,485,1489584101323681868,,0,0,46.5185012817,6.56660842896,2.77602830977e-40,1.0,0.0,0.0,0.0,1.0,0.0,0.0,0.0,1.0,0
1489584101426536659,486,1489584101423848694,,0,0,46.5184898376,6.56660461426,2.77602830977e-40,1.0,0.0,0.0,0.0,1.0,0.0,0.0,0.0,1.0,0
1489584101526870881,487,1489584101524413332,,0,0,46.5184898376,6.56660461426,2.77602830977e-40,1.0,0.0,0.0,0.0,1.0,0.0,0.0,0.0,1.0,0
1489584101626582187,488,1489584101623746775,,0,0,46.5184898376,6.56660842896,2.77602830977e-40,1.0,0.0,0.0,0.0,1.0,0.0,0.0,0.0,1.0,0
1489584101726076306,489,1489584101723688601,,0,0,46.5184898376,6.56660842896,2.77602830977e-40,1.0,0.0,0.0,0.0,1.0,0.0,0.0,0.0,1.0,0
1489584101827122298,490,1489584101823762876,,0,0,46.5184860229,6.56659793854,2.77602830977e-40,1.0,0.0,0.0,0.0,1.0,0.0,0.0,0.0,1.0,0
1489584101927051260,491,1489584101923689390,,0,0,46.5184860229,6.56659793854,2.77602830977e-40,1.0,0.0,0.0,0.0,1.0,0.0,0.0,0.0,1.0,0
1489584102026400536,492,1489584102023731529,,0,0,46.5184860229,6.56661176682,2.77602830977e-40,1.0,0.0,0.0,0.0,1.0,0.0,0.0,0.0,1.0,0
1489584102128877046,493,1489584102123699970,,0,0,46.5184860229,6.56661176682,2.77602830977e-40,1.0,0.0,0.0,0.0,1.0,0.0,0.0,0.0,1.0,0
1489584102226609293,494,1489584102223765078,,0,0,46.5184898376,6.56658172607,2.77602830977e-40,1.0,0.0,0.0,0.0,1.0,0.0,0.0,0.0,1.0,0
1489584102328685074,495,1489584102323699509,,0,0,46.5184898376,6.56658172607,2.77602830977e-40,1.0,0.0,0.0,0.0,1.0,0.0,0.0,0.0,1.0,0
1489584102425981645,496,1489584102423719044,,0,0,46.5185012817,6.56660509109,2.77602830977e-40,1.0,0.0,0.0,0.0,1.0,0.0,0.0,0.0,1.0,0
1489584102528795186,497,1489584102523706235,,0,0,46.5185012817,6.56660509109,2.77602830977e-40,1.0,0.0,0.0,0.0,1.0,0.0,0.0,0.0,1.0,0
1489584102627362119,498,1489584102623779989,,0,0,46.5184898376,6.56660842896,2.77602830977e-40,1.0,0.0,0.0,0.0,1.0,0.0,0.0,0.0,1.0,0
1489584102727043217,499,1489584102723691816,,0,0,46.5184898376,6.56660842896,2.77602830977e-40,1.0,0.0,0.0,0.0,1.0,0.0,0.0,0.0,1.0,0
1489584102826910200,500,1489584102823717444,,0,0,46.5184898376,6.56661462784,2.77602830977e-40,1.0,0.0,0.0,0.0,1.0,0.0,0.0,0.0,1.0,0
1489584102926956037,501,1489584102923692240,,0,0,46.5184898376,6.56661462784,2.77602830977e-40,1.0,0.0,0.0,0.0,1.0,0.0,0.0,0.0,1.0,0
1489584103026122448,502,1489584103023766410,,0,0,46.5184745789,6.56661462784,2.77602830977e-40,1.0,0.0,0.0,0.0,1.0,0.0,0.0,0.0,1.0,0
1489584103126737138,503,1489584103123684695,,0,0,46.5184745789,6.56661462784,2.77602830977e-40,1.0,0.0,0.0,0.0,1.0,0.0,0.0,0.0,1.0,0
1489584103225916206,504,1489584103223713188,,0,0,46.5184783936,6.56662654877,2.77602830977e-40,1.0,0.0,0.0,0.0,1.0,0.0,0.0,0.0,1.0,0
1489584103326464698,505,1489584103323708869,,0,0,46.5184783936,6.56662654877,2.77602830977e-40,1.0,0.0,0.0,0.0,1.0,0.0,0.0,0.0,1.0,0
1489584103425901630,506,1489584103423749289,,0,0,46.5184898376,6.56661128998,2.77602830977e-40,1.0,0.0,0.0,0.0,1.0,0.0,0.0,0.0,1.0,0
1489584103525888561,507,1489584103523679606,,0,0,46.5184898376,6.56661128998,2.77602830977e-40,1.0,0.0,0.0,0.0,1.0,0.0,0.0,0.0,1.0,0
1489584103627126688,508,1489584103623709766,,0,0,46.5184860229,6.56662130356,2.77602830977e-40,1.0,0.0,0.0,0.0,1.0,0.0,0.0,0.0,1.0,0
1489584103727769138,509,1489584103723706280,,0,0,46.5184860229,6.56662130356,2.77602830977e-40,1.0,0.0,0.0,0.0,1.0,0.0,0.0,0.0,1.0,0
1489584103826965341,510,1489584103823759252,,0,0,46.5184783936,6.56661128998,2.77602830977e-40,1.0,0.0,0.0,0.0,1.0,0.0,0.0,0.0,1.0,0
1489584103926153471,511,1489584103923688162,,0,0,46.5184783936,6.56661128998,2.77602830977e-40,1.0,0.0,0.0,0.0,1.0,0.0,0.0,0.0,1.0,0
1489584104026213162,512,1489584104023720822,,0,0,46.5184783936,6.56662654877,2.77602830977e-40,1.0,0.0,0.0,0.0,1.0,0.0,0.0,0.0,1.0,0
1489584104126397749,513,1489584104124051555,,0,0,46.5184783936,6.56662654877,2.77602830977e-40,1.0,0.0,0.0,0.0,1.0,0.0,0.0,0.0,1.0,0
1489584104227436605,514,1489584104223756871,,0,0,46.5184669495,6.566634655,2.77602830977e-40,1.0,0.0,0.0,0.0,1.0,0.0,0.0,0.0,1.0,0
1489584104326564058,515,1489584104323698281,,0,0,46.5184669495,6.566634655,2.77602830977e-40,1.0,0.0,0.0,0.0,1.0,0.0,0.0,0.0,1.0,0
1489584104426150104,516,1489584104423771149,,0,0,46.5184707642,6.56663274765,2.77602830977e-40,1.0,0.0,0.0,0.0,1.0,0.0,0.0,0.0,1.0,0
1489584104526720159,517,1489584104524535214,,0,0,46.5184707642,6.56663274765,2.77602830977e-40,1.0,0.0,0.0,0.0,1.0,0.0,0.0,0.0,1.0,0
1489584104626513757,518,1489584104623753657,,0,0,46.5184669495,6.56662940979,2.77602830977e-40,1.0,0.0,0.0,0.0,1.0,0.0,0.0,0.0,1.0,0
1489584104726603552,519,1489584104723684234,,0,0,46.5184669495,6.56662940979,2.77602830977e-40,1.0,0.0,0.0,0.0,1.0,0.0,0.0,0.0,1.0,0
1489584104826281942,520,1489584104823727310,,0,0,46.5184707642,6.56662893295,2.77602830977e-40,1.0,0.0,0.0,0.0,1.0,0.0,0.0,0.0,1.0,0
1489584104928702254,521,1489584104924614656,,0,0,46.5184707642,6.56662893295,2.77602830977e-40,1.0,0.0,0.0,0.0,1.0,0.0,0.0,0.0,1.0,0
1489584105027622312,522,1489584105023770859,,0,0,46.5184631348,6.56661653519,2.77602830977e-40,1.0,0.0,0.0,0.0,1.0,0.0,0.0,0.0,1.0,0
1489584105127565961,523,1489584105123702634,,0,0,46.5184631348,6.56661653519,2.77602830977e-40,1.0,0.0,0.0,0.0,1.0,0.0,0.0,0.0,1.0,0
1489584105226502581,524,1489584105223733471,,0,0,46.5184593201,6.56662845612,2.77602830977e-40,1.0,0.0,0.0,0.0,1.0,0.0,0.0,0.0,1.0,0
1489584105326421127,525,1489584105323908683,,0,0,46.5184593201,6.56662845612,2.77602830977e-40,1.0,0.0,0.0,0.0,1.0,0.0,0.0,0.0,1.0,0
1489584105427743941,526,1489584105423787697,,0,0,46.5184707642,6.56662464142,2.77602830977e-40,1.0,0.0,0.0,0.0,1.0,0.0,0.0,0.0,1.0,0
1489584105527466653,527,1489584105523695201,,0,0,46.5184707642,6.56662464142,2.77602830977e-40,1.0,0.0,0.0,0.0,1.0,0.0,0.0,0.0,1.0,0
1489584105626447179,528,1489584105623740569,,0,0,46.5184783936,6.56663656235,2.77602830977e-40,1.0,0.0,0.0,0.0,1.0,0.0,0.0,0.0,1.0,0
1489584105727883848,529,1489584105723692656,,0,0,46.5184783936,6.56663656235,2.77602830977e-40,1.0,0.0,0.0,0.0,1.0,0.0,0.0,0.0,1.0,0
1489584105827366248,530,1489584105823757451,,0,0,46.5184669495,6.56664037704,2.77602830977e-40,1.0,0.0,0.0,0.0,1.0,0.0,0.0,0.0,1.0,0
1489584105926028181,531,1489584105923684486,,0,0,46.5184669495,6.56664037704,2.77602830977e-40,1.0,0.0,0.0,0.0,1.0,0.0,0.0,0.0,1.0,0
1489584106028125681,532,1489584106023736157,,0,0,46.5184669495,6.56665086746,2.77602830977e-40,1.0,0.0,0.0,0.0,1.0,0.0,0.0,0.0,1.0,0
1489584106130222244,533,1489584106123694806,,0,0,46.5184669495,6.56665086746,2.77602830977e-40,1.0,0.0,0.0,0.0,1.0,0.0,0.0,0.0,1.0,0
1489584106227398971,534,1489584106223772987,,0,0,46.5184745789,6.56663608551,2.77602830977e-40,1.0,0.0,0.0,0.0,1.0,0.0,0.0,0.0,1.0,0
1489584106326521216,535,1489584106323694449,,0,0,46.5184745789,6.56663608551,2.77602830977e-40,1.0,0.0,0.0,0.0,1.0,0.0,0.0,0.0,1.0,0
1489584106430764078,536,1489584106425326117,,0,0,46.5184593201,6.56664323807,2.77602830977e-40,1.0,0.0,0.0,0.0,1.0,0.0,0.0,0.0,1.0,0
1489584106527580649,537,1489584106523682582,,0,0,46.5184593201,6.56664323807,2.77602830977e-40,1.0,0.0,0.0,0.0,1.0,0.0,0.0,0.0,1.0,0
1489584106628070600,538,1489584106623785814,,0,0,46.5184593201,6.56664705276,2.77602830977e-40,1.0,0.0,0.0,0.0,1.0,0.0,0.0,0.0,1.0,0
1489584106727406333,539,1489584106723703995,,0,0,46.5184593201,6.56664705276,2.77602830977e-40,1.0,0.0,0.0,0.0,1.0,0.0,0.0,0.0,1.0,0
1489584106827704878,540,1489584106823730301,,0,0,46.5184631348,6.56663656235,2.77602830977e-40,1.0,0.0,0.0,0.0,1.0,0.0,0.0,0.0,1.0,0
1489584106927799361,541,1489584106923700930,,0,0,46.5184631348,6.56663656235,2.77602830977e-40,1.0,0.0,0.0,0.0,1.0,0.0,0.0,0.0,1.0,0
1489584107026492440,542,1489584107023759319,,0,0,46.5184631348,6.5666270256,2.77602830977e-40,1.0,0.0,0.0,0.0,1.0,0.0,0.0,0.0,1.0,0
1489584107128130826,543,1489584107124106249,,0,0,46.5184631348,6.5666270256,2.77602830977e-40,1.0,0.0,0.0,0.0,1.0,0.0,0.0,0.0,1.0,0
1489584107227818383,544,1489584107223721566,,0,0,46.5184669495,6.56662511826,2.77602830977e-40,1.0,0.0,0.0,0.0,1.0,0.0,0.0,0.0,1.0,0
1489584107327661824,545,1489584107323702247,,0,0,46.5184669495,6.56662511826,2.77602830977e-40,1.0,0.0,0.0,0.0,1.0,0.0,0.0,0.0,1.0,0
1489584107427552661,546,1489584107423765844,,0,0,46.5184631348,6.566614151,2.77602830977e-40,1.0,0.0,0.0,0.0,1.0,0.0,0.0,0.0,1.0,0
1489584107525886001,547,1489584107523714077,,0,0,46.5184631348,6.566614151,2.77602830977e-40,1.0,0.0,0.0,0.0,1.0,0.0,0.0,0.0,1.0,0
1489584107629329645,548,1489584107623742310,,0,0,46.5184516907,6.56661844254,2.77602830977e-40,1.0,0.0,0.0,0.0,1.0,0.0,0.0,0.0,1.0,0
