%time,field.header.seq,field.header.stamp,field.header.frame_id,field.status.status,field.status.service,field.latitude,field.longitude,field.altitude,field.position_covariance0,field.position_covariance1,field.position_covariance2,field.position_covariance3,field.position_covariance4,field.position_covariance5,field.position_covariance6,field.position_covariance7,field.position_covariance8,field.position_covariance_type
1489585213467606730,108,1489585213465267724,,0,0,46.518497467,6.56665086746,2.77602830977e-40,1.0,0.0,0.0,0.0,1.0,0.0,0.0,0.0,1.0,0
1489585213569127982,109,1489585213565139655,,0,0,46.518497467,6.56665086746,2.77602830977e-40,1.0,0.0,0.0,0.0,1.0,0.0,0.0,0.0,1.0,0
1489585213669645797,110,1489585213665277679,,0,0,46.5185089111,6.56664562225,2.77602830977e-40,1.0,0.0,0.0,0.0,1.0,0.0,0.0,0.0,1.0,0
1489585213769148718,111,1489585213765129818,,0,0,46.5185089111,6.56664562225,2.77602830977e-40,1.0,0.0,0.0,0.0,1.0,0.0,0.0,0.0,1.0,0
1489585213869592159,112,1489585213865257530,,0,0,46.5185127258,6.56664943695,2.77602830977e-40,1.0,0.0,0.0,0.0,1.0,0.0,0.0,0.0,1.0,0
1489585213969217632,113,1489585213965151492,,0,0,46.5185127258,6.56664943695,2.77602830977e-40,1.0,0.0,0.0,0.0,1.0,0.0,0.0,0.0,1.0,0
1489585214067110972,114,1489585214065303579,,0,0,46.5185127258,6.56665372849,2.77602830977e-40,1.0,0.0,0.0,0.0,1.0,0.0,0.0,0.0,1.0,0
1489585214169381181,115,1489585214165138218,,0,0,46.5185127258,6.56665372849,2.77602830977e-40,1.0,0.0,0.0,0.0,1.0,0.0,0.0,0.0,1.0,0
1489585214268017020,116,1489585214265264472,,0,0,46.5185165405,6.56665182114,2.77602830977e-40,1.0,0.0,0.0,0.0,1.0,0.0,0.0,0.0,1.0,0
1489585214369654573,117,1489585214365140934,,0,0,46.5185165405,6.56665182114,2.77602830977e-40,1.0,0.0,0.0,0.0,1.0,0.0,0.0,0.0,1.0,0
1489585214470209993,118,1489585214465253802,,0,0,46.5185127258,6.566655159,2.77602830977e-40,1.0,0.0,0.0,0.0,1.0,0.0,0.0,0.0,1.0,0
1489585214569422237,119,1489585214565146931,,0,0,46.5185127258,6.566655159,2.77602830977e-40,1.0,0.0,0.0,0.0,1.0,0.0,0.0,0.0,1.0,0
1489585214667621775,120,1489585214665280320,,0,0,46.5185203552,6.56665897369,2.77602830977e-40,1.0,0.0,0.0,0.0,1.0,0.0,0.0,0.0,1.0,0
1489585214767612143,121,1489585214765151105,,0,0,46.5185203552,6.56665897369,2.77602830977e-40,1.0,0.0,0.0,0.0,1.0,0.0,0.0,0.0,1.0,0
1489585214867818032,122,1489585214865277359,,0,0,46.5185203552,6.56667089462,2.77602830977e-40,1.0,0.0,0.0,0.0,1.0,0.0,0.0,0.0,1.0,0
1489585214973021674,123,1489585214965136009,,0,0,46.5185203552,6.56667089462,2.77602830977e-40,1.0,0.0,0.0,0.0,1.0,0.0,0.0,0.0,1.0,0
1489585215069916526,124,1489585215065274710,,0,0,46.5185165405,6.56667709351,2.77602830977e-40,1.0,0.0,0.0,0.0,1.0,0.0,0.0,0.0,1.0,0
1489585215167578252,125,1489585215165148256,,0,0,46.5185165405,6.56667709351,2.77602830977e-40,1.0,0.0,0.0,0.0,1.0,0.0,0.0,0.0,1.0,0
1489585215268761170,126,1489585215265310915,,0,0,46.5185203552,6.56668186188,2.77602830977e-40,1.0,0.0,0.0,0.0,1.0,0.0,0.0,0.0,1.0,0
1489585215368076331,127,1489585215365138263,,0,0,46.5185203552,6.56668186188,2.77602830977e-40,1.0,0.0,0.0,0.0,1.0,0.0,0.0,0.0,1.0,0
1489585215469235292,128,1489585215465262173,,0,0,46.5185241699,6.56668233871,2.77602830977e-40,1.0,0.0,0.0,0.0,1.0,0.0,0.0,0.0,1.0,0
1489585215569079567,129,1489585215565141083,,0,0,46.5185241699,6.56668233871,2.77602830977e-40,1.0,0.0,0.0,0.0,1.0,0.0,0.0,0.0,1.0,0
1489585215669467226,130,1489585215665274420,,0,0,46.5185241699,6.56668329239,2.77602830977e-40,1.0,0.0,0.0,0.0,1.0,0.0,0.0,0.0,1.0,0
1489585215768468117,131,1489585215765136820,,0,0,46.5185241699,6.56668329239,2.77602830977e-40,1.0,0.0,0.0,0.0,1.0,0.0,0.0,0.0,1.0,0
1489585215869683952,132,1489585215865116771,,0,0,46.5185279846,6.5666847229,2.77602830977e-40,1.0,0.0,0.0,0.0,1.0,0.0,0.0,0.0,1.0,0
1489585215966985053,133,1489585215965146671,,0,0,46.5185279846,6.5666847229,2.77602830977e-40,1.0,0.0,0.0,0.0,1.0,0.0,0.0,0.0,1.0,0
1489585216067051724,134,1489585216065287508,,0,0,46.5185241699,6.5666885376,2.77602830977e-40,1.0,0.0,0.0,0.0,1.0,0.0,0.0,0.0,1.0,0
1489585216168013497,135,1489585216165147355,,0,0,46.5185241699,6.5666885376,2.77602830977e-40,1.0,0.0,0.0,0.0,1.0,0.0,0.0,0.0,1.0,0
1489585216268999124,136,1489585216265251838,,0,0,46.5185317993,6.56668233871,2.77602830977e-40,1.0,0.0,0.0,0.0,1.0,0.0,0.0,0.0,1.0,0
1489585216369634856,137,1489585216365143821,,0,0,46.5185317993,6.56668233871,2.77602830977e-40,1.0,0.0,0.0,0.0,1.0,0.0,0.0,0.0,1.0,0
1489585216469219652,138,1489585216465279033,,0,0,46.5185279846,6.56669187546,2.77602830977e-40,1.0,0.0,0.0,0.0,1.0,0.0,0.0,0.0,1.0,0
1489585216567134763,139,1489585216565142578,,0,0,46.5185279846,6.56669187546,2.77602830977e-40,1.0,0.0,0.0,0.0,1.0,0.0,0.0,0.0,1.0,0
1489585216670363772,140,1489585216665242842,,0,0,46.5185279846,6.56669092178,2.77602830977e-40,1.0,0.0,0.0,0.0,1.0,0.0,0.0,0.0,1.0,0
1489585216769046642,141,1489585216765138419,,0,0,46.5185279846,6.56669092178,2.77602830977e-40,1.0,0.0,0.0,0.0,1.0,0.0,0.0,0.0,1.0,0
1489585216867638627,142,1489585216865289100,,0,0,46.5185279846,6.56669950485,2.77602830977e-40,1.0,0.0,0.0,0.0,1.0,0.0,0.0,0.0,1.0,0
1489585216967697381,143,1489585216965135562,,0,0,46.5185279846,6.56669950485,2.77602830977e-40,1.0,0.0,0.0,0.0,1.0,0.0,0.0,0.0,1.0,0
1489585217067242594,144,1489585217065233951,,0,0,46.5185279846,6.56670618057,2.77602830977e-40,1.0,0.0,0.0,0.0,1.0,0.0,0.0,0.0,1.0,0
1489585217168006659,145,1489585217165142965,,0,0,46.5185279846,6.56670618057,2.77602830977e-40,1.0,0.0,0.0,0.0,1.0,0.0,0.0,0.0,1.0,0
1489585217267973902,146,1489585217265248229,,0,0,46.5185279846,6.56670713425,2.77602830977e-40,1.0,0.0,0.0,0.0,1.0,0.0,0.0,0.0,1.0,0
1489585217367757708,147,1489585217365143858,,0,0,46.5185279846,6.56670713425,2.77602830977e-40,1.0,0.0,0.0,0.0,1.0,0.0,0.0,0.0,1.0,0
1489585217468404013,148,1489585217465243862,,0,0,46.5185279846,6.56670427322,2.77602830977e-40,1.0,0.0,0.0,0.0,1.0,0.0,0.0,0.0,1.0,0
1489585217568773756,149,1489585217565146105,,0,0,46.5185279846,6.56670427322,2.77602830977e-40,1.0,0.0,0.0,0.0,1.0,0.0,0.0,0.0,1.0,0
1489585217668252042,150,1489585217665248192,,0,0,46.5185317993,6.56670618057,2.77602830977e-40,1.0,0.0,0.0,0.0,1.0,0.0,0.0,0.0,1.0,0
1489585217767675796,151,1489585217765138456,,0,0,46.5185317993,6.56670618057,2.77602830977e-40,1.0,0.0,0.0,0.0,1.0,0.0,0.0,0.0,1.0,0
1489585217868807986,152,1489585217865283147,,0,0,46.518535614,6.56670570374,2.77602830977e-40,1.0,0.0,0.0,0.0,1.0,0.0,0.0,0.0,1.0,0
1489585217968349240,153,1489585217965154037,,0,0,46.518535614,6.56670570374,2.77602830977e-40,1.0,0.0,0.0,0.0,1.0,0.0,0.0,0.0,1.0,0
1489585218069231638,154,1489585218065253467,,0,0,46.5185394287,6.56670808792,2.77602830977e-40,1.0,0.0,0.0,0.0,1.0,0.0,0.0,0.0,1.0,0
1489585218168100394,155,1489585218165154877,,0,0,46.5185394287,6.56670808792,2.77602830977e-40,1.0,0.0,0.0,0.0,1.0,0.0,0.0,0.0,1.0,0
1489585218267765242,156,1489585218265255402,,0,0,46.5185394287,6.5667181015,2.77602830977e-40,1.0,0.0,0.0,0.0,1.0,0.0,0.0,0.0,1.0,0
1489585218367371392,157,1489585218365142697,,0,0,46.5185394287,6.5667181015,2.77602830977e-40,1.0,0.0,0.0,0.0,1.0,0.0,0.0,0.0,1.0,0
1489585218467473947,158,1489585218465272232,,0,0,46.5185394287,6.56672286987,2.77602830977e-40,1.0,0.0,0.0,0.0,1.0,0.0,0.0,0.0,1.0,0
1489585218568562387,159,1489585218565129788,,0,0,46.5185394287,6.56672286987,2.77602830977e-40,1.0,0.0,0.0,0.0,1.0,0.0,0.0,0.0,1.0,0
1489585218669290098,160,1489585218665244219,,0,0,46.5185432434,6.56672286987,2.77602830977e-40,1.0,0.0,0.0,0.0,1.0,0.0,0.0,0.0,1.0,0
1489585218768095103,161,1489585218765143337,,0,0,46.5185432434,6.56672286987,2.77602830977e-40,1.0,0.0,0.0,0.0,1.0,0.0,0.0,0.0,1.0,0
1489585218868128649,162,1489585218865277143,,0,0,46.5185432434,6.56672430038,2.77602830977e-40,1.0,0.0,0.0,0.0,1.0,0.0,0.0,0.0,1.0,0
1489585218968108288,163,1489585218965149126,,0,0,46.5185432434,6.56672430038,2.77602830977e-40,1.0,0.0,0.0,0.0,1.0,0.0,0.0,0.0,1.0,0
1489585219069050165,164,1489585219065610952,,0,0,46.5185432434,6.56672906876,2.77602830977e-40,1.0,0.0,0.0,0.0,1.0,0.0,0.0,0.0,1.0,0
1489585219168153660,165,1489585219165138717,,0,0,46.5185432434,6.56672906876,2.77602830977e-40,1.0,0.0,0.0,0.0,1.0,0.0,0.0,0.0,1.0,0
1489585219268089549,166,1489585219265244033,,0,0,46.5185470581,6.56673002243,2.77602830977e-40,1.0,0.0,0.0,0.0,1.0,0.0,0.0,0.0,1.0,0
1489585219368138407,167,1489585219365134922,,0,0,46.5185470581,6.56673002243,2.77602830977e-40,1.0,0.0,0.0,0.0,1.0,0.0,0.0,0.0,1.0,0
1489585219468223827,168,1489585219465259978,,0,0,46.5185470581,6.56673383713,2.77602830977e-40,1.0,0.0,0.0,0.0,1.0,0.0,0.0,0.0,1.0,0
1489585219569842266,169,1489585219565143471,,0,0,46.5185470581,6.56673383713,2.77602830977e-40,1.0,0.0,0.0,0.0,1.0,0.0,0.0,0.0,1.0,0
1489585219667702273,170,1489585219665244985,,0,0,46.5185470581,6.56673383713,2.77602830977e-40,1.0,0.0,0.0,0.0,1.0,0.0,0.0,0.0,1.0,0
1489585219767677381,171,1489585219765147437,,0,0,46.5185470581,6.56673383713,2.77602830977e-40,1.0,0.0,0.0,0.0,1.0,0.0,0.0,0.0,1.0,0
1489585219868174571,172,1489585219865241086,,0,0,46.5185508728,6.56674051285,2.77602830977e-40,1.0,0.0,0.0,0.0,1.0,0.0,0.0,0.0,1.0,0
1489585219969553010,173,1489585219965130986,,0,0,46.5185508728,6.56674051285,2.77602830977e-40,1.0,0.0,0.0,0.0,1.0,0.0,0.0,0.0,1.0,0
1489585220068199318,174,1489585220065295364,,0,0,46.5185508728,6.56674289703,2.77602830977e-40,1.0,0.0,0.0,0.0,1.0,0.0,0.0,0.0,1.0,0
1489585220167807656,175,1489585220165132087,,0,0,46.5185508728,6.56674289703,2.77602830977e-40,1.0,0.0,0.0,0.0,1.0,0.0,0.0,0.0,1.0,0
1489585220268752346,176,1489585220265265788,,0,0,46.5185508728,6.56674623489,2.77602830977e-40,1.0,0.0,0.0,0.0,1.0,0.0,0.0,0.0,1.0,0
1489585220369964170,177,1489585220365155636,,0,0,46.5185508728,6.56674623489,2.77602830977e-40,1.0,0.0,0.0,0.0,1.0,0.0,0.0,0.0,1.0,0
1489585220467542459,178,1489585220465237098,,0,0,46.5185508728,6.56674814224,2.77602830977e-40,1.0,0.0,0.0,0.0,1.0,0.0,0.0,0.0,1.0,0
1489585220567252828,179,1489585220565141060,,0,0,46.5185508728,6.56674814224,2.77602830977e-40,1.0,0.0,0.0,0.0,1.0,0.0,0.0,0.0,1.0,0
1489585220667683612,180,1489585220665246533,,0,0,46.5185508728,6.5667514801,2.77602830977e-40,1.0,0.0,0.0,0.0,1.0,0.0,0.0,0.0,1.0,0
1489585220767237627,181,1489585220765139453,,0,0,46.5185508728,6.5667514801,2.77602830977e-40,1.0,0.0,0.0,0.0,1.0,0.0,0.0,0.0,1.0,0
1489585220867519974,182,1489585220865238727,,0,0,46.5185508728,6.56675195694,2.77602830977e-40,1.0,0.0,0.0,0.0,1.0,0.0,0.0,0.0,1.0,0
1489585220967525186,183,1489585220965141283,,0,0,46.5185508728,6.56675195694,2.77602830977e-40,1.0,0.0,0.0,0.0,1.0,0.0,0.0,0.0,1.0,0
1489585221067669148,184,1489585221065262277,,0,0,46.5185508728,6.56675720215,2.77602830977e-40,1.0,0.0,0.0,0.0,1.0,0.0,0.0,0.0,1.0,0
1489585221168068213,185,1489585221165227645,,0,0,46.5185508728,6.56675720215,2.77602830977e-40,1.0,0.0,0.0,0.0,1.0,0.0,0.0,0.0,1.0,0
1489585221267928061,186,1489585221265233846,,0,0,46.5185546875,6.56676054001,2.77602830977e-40,1.0,0.0,0.0,0.0,1.0,0.0,0.0,0.0,1.0,0
1489585221367397909,187,1489585221365144267,,0,0,46.5185546875,6.56676054001,2.77602830977e-40,1.0,0.0,0.0,0.0,1.0,0.0,0.0,0.0,1.0,0
1489585221468018225,188,1489585221465275937,,0,0,46.5185546875,6.56676435471,2.77602830977e-40,1.0,0.0,0.0,0.0,1.0,0.0,0.0,0.0,1.0,0
1489585221567992291,189,1489585221565145264,,0,0,46.5185546875,6.56676435471,2.77602830977e-40,1.0,0.0,0.0,0.0,1.0,0.0,0.0,0.0,1.0,0
1489585221667946409,190,1489585221665231674,,0,0,46.5185546875,6.56676578522,2.77602830977e-40,1.0,0.0,0.0,0.0,1.0,0.0,0.0,0.0,1.0,0
1489585221767960215,191,1489585221765129751,,0,0,46.5185546875,6.56676578522,2.77602830977e-40,1.0,0.0,0.0,0.0,1.0,0.0,0.0,0.0,1.0,0
1489585221867630636,192,1489585221865264390,,0,0,46.5185585022,6.56676864624,2.77602830977e-40,1.0,0.0,0.0,0.0,1.0,0.0,0.0,0.0,1.0,0
1489585221967367359,193,1489585221965130175,,0,0,46.5185585022,6.56676864624,2.77602830977e-40,1.0,0.0,0.0,0.0,1.0,0.0,0.0,0.0,1.0,0
1489585222067871112,194,1489585222065257366,,0,0,46.5185585022,6.56677150726,2.77602830977e-40,1.0,0.0,0.0,0.0,1.0,0.0,0.0,0.0,1.0,0
1489585222167678251,195,1489585222165129609,,0,0,46.5185585022,6.56677150726,2.77602830977e-40,1.0,0.0,0.0,0.0,1.0,0.0,0.0,0.0,1.0,0
1489585222267666432,196,1489585222265234248,,0,0,46.5185546875,6.56677293777,2.77602830977e-40,1.0,0.0,0.0,0.0,1.0,0.0,0.0,0.0,1.0,0
1489585222368067893,197,1489585222365247846,,0,0,46.5185546875,6.56677293777,2.77602830977e-40,1.0,0.0,0.0,0.0,1.0,0.0,0.0,0.0,1.0,0
1489585222469768155,198,1489585222465237485,,0,0,46.5185585022,6.56677627563,2.77602830977e-40,1.0,0.0,0.0,0.0,1.0,0.0,0.0,0.0,1.0,0
1489585222567690506,199,1489585222565135301,,0,0,46.5185585022,6.56677627563,2.77602830977e-40,1.0,0.0,0.0,0.0,1.0,0.0,0.0,0.0,1.0,0
1489585222668278269,200,1489585222665114836,,0,0,46.5185585022,6.56678152084,2.77602830977e-40,1.0,0.0,0.0,0.0,1.0,0.0,0.0,0.0,1.0,0
1489585222768227439,201,1489585222765125829,,0,0,46.5185585022,6.56678152084,2.77602830977e-40,1.0,0.0,0.0,0.0,1.0,0.0,0.0,0.0,1.0,0
1489585222869594472,202,1489585222865569010,,0,0,46.5185585022,6.5667848587,2.77602830977e-40,1.0,0.0,0.0,0.0,1.0,0.0,0.0,0.0,1.0,0
1489585222968453853,203,1489585222965130056,,0,0,46.5185585022,6.5667848587,2.77602830977e-40,1.0,0.0,0.0,0.0,1.0,0.0,0.0,0.0,1.0,0
1489585223068125628,204,1489585223065256413,,0,0,46.5185585022,6.5667886734,2.77602830977e-40,1.0,0.0,0.0,0.0,1.0,0.0,0.0,0.0,1.0,0
1489585223168075892,205,1489585223165131417,,0,0,46.5185585022,6.5667886734,2.77602830977e-40,1.0,0.0,0.0,0.0,1.0,0.0,0.0,0.0,1.0,0
1489585223267980844,206,1489585223265245327,,0,0,46.5185585022,6.5667924881,2.77602830977e-40,1.0,0.0,0.0,0.0,1.0,0.0,0.0,0.0,1.0,0
1489585223374283338,207,1489585223365126268,,0,0,46.5185585022,6.5667924881,2.77602830977e-40,1.0,0.0,0.0,0.0,1.0,0.0,0.0,0.0,1.0,0
1489585223468045174,208,1489585223465265282,,0,0,46.5185585022,6.56679677963,2.77602830977e-40,1.0,0.0,0.0,0.0,1.0,0.0,0.0,0.0,1.0,0
1489585223567694605,209,1489585223565280651,,0,0,46.5185585022,6.56679677963,2.77602830977e-40,1.0,0.0,0.0,0.0,1.0,0.0,0.0,0.0,1.0,0
1489585223667578151,210,1489585223665404196,,0,0,46.5185585022,6.56679916382,2.77602830977e-40,1.0,0.0,0.0,0.0,1.0,0.0,0.0,0.0,1.0,0
1489585223768261487,211,1489585223765145658,,0,0,46.5185585022,6.56679916382,2.77602830977e-40,1.0,0.0,0.0,0.0,1.0,0.0,0.0,0.0,1.0,0
1489585223868193730,212,1489585223865274308,,0,0,46.5185585022,6.56680107117,2.77602830977e-40,1.0,0.0,0.0,0.0,1.0,0.0,0.0,0.0,1.0,0
1489585223968401234,213,1489585223965130353,,0,0,46.5185585022,6.56680107117,2.77602830977e-40,1.0,0.0,0.0,0.0,1.0,0.0,0.0,0.0,1.0,0
1489585224068837695,214,1489585224065287179,,0,0,46.5185585022,6.5668053627,2.77602830977e-40,1.0,0.0,0.0,0.0,1.0,0.0,0.0,0.0,1.0,0
1489585224170405769,215,1489585224165148798,,0,0,46.5185585022,6.5668053627,2.77602830977e-40,1.0,0.0,0.0,0.0,1.0,0.0,0.0,0.0,1.0,0
1489585224268492442,216,1489585224265255156,,0,0,46.5185585022,6.5668091774,2.77602830977e-40,1.0,0.0,0.0,0.0,1.0,0.0,0.0,0.0,1.0,0
1489585224367964634,217,1489585224365132608,,0,0,46.5185585022,6.5668091774,2.77602830977e-40,1.0,0.0,0.0,0.0,1.0,0.0,0.0,0.0,1.0,0
1489585224467706930,218,1489585224465286257,,0,0,46.5185585022,6.5668129921,2.77602830977e-40,1.0,0.0,0.0,0.0,1.0,0.0,0.0,0.0,1.0,0
1489585224571307606,219,1489585224565130532,,0,0,46.5185585022,6.5668129921,2.77602830977e-40,1.0,0.0,0.0,0.0,1.0,0.0,0.0,0.0,1.0,0
1489585224668218291,220,1489585224665251316,,0,0,46.5185585022,6.56681728363,2.77602830977e-40,1.0,0.0,0.0,0.0,1.0,0.0,0.0,0.0,1.0,0
1489585224769174387,221,1489585224765130435,,0,0,46.5185585022,6.56681728363,2.77602830977e-40,1.0,0.0,0.0,0.0,1.0,0.0,0.0,0.0,1.0,0
1489585224868115122,222,1489585224865244813,,0,0,46.5185585022,6.56682062149,2.77602830977e-40,1.0,0.0,0.0,0.0,1.0,0.0,0.0,0.0,1.0,0
1489585224969487884,223,1489585224965148932,,0,0,46.5185585022,6.56682062149,2.77602830977e-40,1.0,0.0,0.0,0.0,1.0,0.0,0.0,0.0,1.0,0
1489585225067619765,224,1489585225065241331,,0,0,46.5185585022,6.56682395935,2.77602830977e-40,1.0,0.0,0.0,0.0,1.0,0.0,0.0,0.0,1.0,0
1489585225167581696,225,1489585225165130189,,0,0,46.5185585022,6.56682395935,2.77602830977e-40,1.0,0.0,0.0,0.0,1.0,0.0,0.0,0.0,1.0,0
1489585225268250865,226,1489585225265267172,,0,0,46.5185585022,6.5668258667,2.77602830977e-40,1.0,0.0,0.0,0.0,1.0,0.0,0.0,0.0,1.0,0
1489585225371533885,227,1489585225365148218,,0,0,46.5185585022,6.5668258667,2.77602830977e-40,1.0,0.0,0.0,0.0,1.0,0.0,0.0,0.0,1.0,0
1489585225468859934,228,1489585225465237336,,0,0,46.5185585022,6.56682825089,2.77602830977e-40,1.0,0.0,0.0,0.0,1.0,0.0,0.0,0.0,1.0,0
1489585225567769679,229,1489585225565131350,,0,0,46.5185585022,6.56682825089,2.77602830977e-40,1.0,0.0,0.0,0.0,1.0,0.0,0.0,0.0,1.0,0
1489585225667420048,230,1489585225665147187,,0,0,46.5185585022,6.56683063507,2.77602830977e-40,1.0,0.0,0.0,0.0,1.0,0.0,0.0,0.0,1.0,0
1489585225770812703,231,1489585225765493024,,0,0,46.5185585022,6.56683063507,2.77602830977e-40,1.0,0.0,0.0,0.0,1.0,0.0,0.0,0.0,1.0,0
1489585225868883751,232,1489585225865399798,,0,0,46.5185585022,6.56683492661,2.77602830977e-40,1.0,0.0,0.0,0.0,1.0,0.0,0.0,0.0,1.0,0
1489585225968024902,233,1489585225965145323,,0,0,46.5185585022,6.56683492661,2.77602830977e-40,1.0,0.0,0.0,0.0,1.0,0.0,0.0,0.0,1.0,0
1489585226069920424,234,1489585226065253452,,0,0,46.5185585022,6.56683111191,2.77602830977e-40,1.0,0.0,0.0,0.0,1.0,0.0,0.0,0.0,1.0,0
1489585226168159701,235,1489585226165132101,,0,0,46.5185585022,6.56683111191,2.77602830977e-40,1.0,0.0,0.0,0.0,1.0,0.0,0.0,0.0,1.0,0
1489585226268181215,236,1489585226265257574,,0,0,46.5185585022,6.56683301926,2.77602830977e-40,1.0,0.0,0.0,0.0,1.0,0.0,0.0,0.0,1.0,0
1489585226367823615,237,1489585226365139244,,0,0,46.5185585022,6.56683301926,2.77602830977e-40,1.0,0.0,0.0,0.0,1.0,0.0,0.0,0.0,1.0,0
1489585226467499192,238,1489585226465275758,,0,0,46.5185546875,6.56683492661,2.77602830977e-40,1.0,0.0,0.0,0.0,1.0,0.0,0.0,0.0,1.0,0
1489585226568286695,239,1489585226565154877,,0,0,46.5185546875,6.56683492661,2.77602830977e-40,1.0,0.0,0.0,0.0,1.0,0.0,0.0,0.0,1.0,0
1489585226668551698,240,1489585226665254724,,0,0,46.5185546875,6.56683778763,2.77602830977e-40,1.0,0.0,0.0,0.0,1.0,0.0,0.0,0.0,1.0,0
1489585226770817063,241,1489585226765248009,,0,0,46.5185546875,6.56683778763,2.77602830977e-40,1.0,0.0,0.0,0.0,1.0,0.0,0.0,0.0,1.0,0
1489585226868683737,242,1489585226865241398,,0,0,46.5185546875,6.56683921814,2.77602830977e-40,1.0,0.0,0.0,0.0,1.0,0.0,0.0,0.0,1.0,0
1489585226968019470,243,1489585226965137287,,0,0,46.5185546875,6.56683921814,2.77602830977e-40,1.0,0.0,0.0,0.0,1.0,0.0,0.0,0.0,1.0,0
1489585227068145151,244,1489585227065247760,,0,0,46.5185546875,6.56684398651,2.77602830977e-40,1.0,0.0,0.0,0.0,1.0,0.0,0.0,0.0,1.0,0
1489585227167660051,245,1489585227165144899,,0,0,46.5185546875,6.56684398651,2.77602830977e-40,1.0,0.0,0.0,0.0,1.0,0.0,0.0,0.0,1.0,0
1489585227267250264,246,1489585227265260892,,0,0,46.5185546875,6.56684684753,2.77602830977e-40,1.0,0.0,0.0,0.0,1.0,0.0,0.0,0.0,1.0,0
1489585227368177089,247,1489585227365409281,,0,0,46.5185546875,6.56684684753,2.77602830977e-40,1.0,0.0,0.0,0.0,1.0,0.0,0.0,0.0,1.0,0
1489585227468262457,248,1489585227465250431,,0,0,46.5185546875,6.56685590744,2.77602830977e-40,1.0,0.0,0.0,0.0,1.0,0.0,0.0,0.0,1.0,0
1489585227568028399,249,1489585227565143351,,0,0,46.5185546875,6.56685590744,2.77602830977e-40,1.0,0.0,0.0,0.0,1.0,0.0,0.0,0.0,1.0,0
1489585227668509444,250,1489585227665269605,,0,0,46.5185508728,6.56686496735,2.77602830977e-40,1.0,0.0,0.0,0.0,1.0,0.0,0.0,0.0,1.0,0
1489585227768568093,251,1489585227765297056,,0,0,46.5185508728,6.56686496735,2.77602830977e-40,1.0,0.0,0.0,0.0,1.0,0.0,0.0,0.0,1.0,0
1489585227876455689,252,1489585227871598248,,0,0,46.5185508728,6.56686973572,2.77602830977e-40,1.0,0.0,0.0,0.0,1.0,0.0,0.0,0.0,1.0,0
1489585227967781852,253,1489585227965149877,,0,0,46.5185508728,6.56686973572,2.77602830977e-40,1.0,0.0,0.0,0.0,1.0,0.0,0.0,0.0,1.0,0
1489585228068304459,254,1489585228065285661,,0,0,46.5185508728,6.56686925888,2.77602830977e-40,1.0,0.0,0.0,0.0,1.0,0.0,0.0,0.0,1.0,0
1489585228168608577,255,1489585228165141655,,0,0,46.5185508728,6.56686925888,2.77602830977e-40,1.0,0.0,0.0,0.0,1.0,0.0,0.0,0.0,1.0,0
1489585228268232227,256,1489585228265263950,,0,0,46.5185508728,6.56686115265,2.77602830977e-40,1.0,0.0,0.0,0.0,1.0,0.0,0.0,0.0,1.0,0
1489585228368595511,257,1489585228365254318,,0,0,46.5185508728,6.56686115265,2.77602830977e-40,1.0,0.0,0.0,0.0,1.0,0.0,0.0,0.0,1.0,0
1489585228468579629,258,1489585228465286509,,0,0,46.5185470581,6.5668721199,2.77602830977e-40,1.0,0.0,0.0,0.0,1.0,0.0,0.0,0.0,1.0,0
1489585228569260257,259,1489585228565145055,,0,0,46.5185470581,6.5668721199,2.77602830977e-40,1.0,0.0,0.0,0.0,1.0,0.0,0.0,0.0,1.0,0
1489585228668653751,260,1489585228665262923,,0,0,46.5185394287,6.56688117981,2.77602830977e-40,1.0,0.0,0.0,0.0,1.0,0.0,0.0,0.0,1.0,0
1489585228768349745,261,1489585228765141781,,0,0,46.5185394287,6.56688117981,2.77602830977e-40,1.0,0.0,0.0,0.0,1.0,0.0,0.0,0.0,1.0,0
1489585228868709019,262,1489585228865238347,,0,0,46.5185432434,6.56688117981,2.77602830977e-40,1.0,0.0,0.0,0.0,1.0,0.0,0.0,0.0,1.0,0
1489585228968241159,263,1489585228965138091,,0,0,46.5185432434,6.56688117981,2.77602830977e-40,1.0,0.0,0.0,0.0,1.0,0.0,0.0,0.0,1.0,0
1489585229068280746,264,1489585229065255594,,0,0,46.5185394287,6.56689214706,2.77602830977e-40,1.0,0.0,0.0,0.0,1.0,0.0,0.0,0.0,1.0,0
1489585229168098615,265,1489585229165140286,,0,0,46.5185394287,6.56689214706,2.77602830977e-40,1.0,0.0,0.0,0.0,1.0,0.0,0.0,0.0,1.0,0
1489585229267684400,266,1489585229265243362,,0,0,46.5185317993,6.56690979004,2.77602830977e-40,1.0,0.0,0.0,0.0,1.0,0.0,0.0,0.0,1.0,0
1489585229368364090,267,1489585229365144772,,0,0,46.5185317993,6.56690979004,2.77602830977e-40,1.0,0.0,0.0,0.0,1.0,0.0,0.0,0.0,1.0,0
1489585229467880449,268,1489585229465251755,,0,0,46.518535614,6.56689834595,2.77602830977e-40,1.0,0.0,0.0,0.0,1.0,0.0,0.0,0.0,1.0,0
1489585229568599149,269,1489585229565147332,,0,0,46.518535614,6.56689834595,2.77602830977e-40,1.0,0.0,0.0,0.0,1.0,0.0,0.0,0.0,1.0,0
1489585229667719675,270,1489585229665239731,,0,0,46.5185317993,6.56690645218,2.77602830977e-40,1.0,0.0,0.0,0.0,1.0,0.0,0.0,0.0,1.0,0
1489585229768331918,271,1489585229765146923,,0,0,46.5185317993,6.56690645218,2.77602830977e-40,1.0,0.0,0.0,0.0,1.0,0.0,0.0,0.0,1.0,0
1489585229867479683,272,1489585229865231874,,0,0,46.5185317993,6.56690645218,2.77602830977e-40,1.0,0.0,0.0,0.0,1.0,0.0,0.0,0.0,1.0,0
1489585229967639270,273,1489585229965140315,,0,0,46.5185317993,6.56690645218,2.77602830977e-40,1.0,0.0,0.0,0.0,1.0,0.0,0.0,0.0,1.0,0
1489585230067690263,274,1489585230065232454,,0,0,46.5185432434,6.5668964386,2.77602830977e-40,1.0,0.0,0.0,0.0,1.0,0.0,0.0,0.0,1.0,0
1489585230168419849,275,1489585230165153656,,0,0,46.5185432434,6.5668964386,2.77602830977e-40,1.0,0.0,0.0,0.0,1.0,0.0,0.0,0.0,1.0,0
1489585230267820739,276,1489585230265258139,,0,0,46.518535614,6.56690263748,2.77602830977e-40,1.0,0.0,0.0,0.0,1.0,0.0,0.0,0.0,1.0,0
1489585230368040899,277,1489585230365258143,,0,0,46.518535614,6.56690263748,2.77602830977e-40,1.0,0.0,0.0,0.0,1.0,0.0,0.0,0.0,1.0,0
1489585230468731214,278,1489585230465240230,,0,0,46.5185317993,6.5669054985,2.77602830977e-40,1.0,0.0,0.0,0.0,1.0,0.0,0.0,0.0,1.0,0
1489585230567696480,279,1489585230565145390,,0,0,46.5185317993,6.5669054985,2.77602830977e-40,1.0,0.0,0.0,0.0,1.0,0.0,0.0,0.0,1.0,0
1489585230668818409,280,1489585230665284768,,0,0,46.5185394287,6.5668964386,2.77602830977e-40,1.0,0.0,0.0,0.0,1.0,0.0,0.0,0.0,1.0,0
1489585230767979664,281,1489585230765140710,,0,0,46.5185394287,6.5668964386,2.77602830977e-40,1.0,0.0,0.0,0.0,1.0,0.0,0.0,0.0,1.0,0
1489585230869849404,282,1489585230865278474,,0,0,46.5185394287,6.56690120697,2.77602830977e-40,1.0,0.0,0.0,0.0,1.0,0.0,0.0,0.0,1.0,0
1489585230967804255,283,1489585230965145040,,0,0,46.5185394287,6.56690120697,2.77602830977e-40,1.0,0.0,0.0,0.0,1.0,0.0,0.0,0.0,1.0,0
1489585231068425664,284,1489585231065253429,,0,0,46.518535614,6.56690740585,2.77602830977e-40,1.0,0.0,0.0,0.0,1.0,0.0,0.0,0.0,1.0,0
1489585231167930356,285,1489585231165228954,,0,0,46.518535614,6.56690740585,2.77602830977e-40,1.0,0.0,0.0,0.0,1.0,0.0,0.0,0.0,1.0,0
1489585231267661401,286,1489585231265270624,,0,0,46.518535614,6.56690883636,2.77602830977e-40,1.0,0.0,0.0,0.0,1.0,0.0,0.0,0.0,1.0,0
1489585231368302810,287,1489585231365149534,,0,0,46.518535614,6.56690883636,2.77602830977e-40,1.0,0.0,0.0,0.0,1.0,0.0,0.0,0.0,1.0,0
1489585231468245575,288,1489585231465137663,,0,0,46.518535614,6.56690692902,2.77602830977e-40,1.0,0.0,0.0,0.0,1.0,0.0,0.0,0.0,1.0,0
1489585231567614798,289,1489585231565132302,,0,0,46.518535614,6.56690692902,2.77602830977e-40,1.0,0.0,0.0,0.0,1.0,0.0,0.0,0.0,1.0,0
1489585231667697666,290,1489585231665339597,,0,0,46.5185317993,6.56691598892,2.77602830977e-40,1.0,0.0,0.0,0.0,1.0,0.0,0.0,0.0,1.0,0
1489585231768360481,291,1489585231765128559,,0,0,46.5185317993,6.56691598892,2.77602830977e-40,1.0,0.0,0.0,0.0,1.0,0.0,0.0,0.0,1.0,0
1489585231868312829,292,1489585231865244136,,0,0,46.5185279846,6.56691265106,2.77602830977e-40,1.0,0.0,0.0,0.0,1.0,0.0,0.0,0.0,1.0,0
1489585231967512678,293,1489585231965135233,,0,0,46.5185279846,6.56691265106,2.77602830977e-40,1.0,0.0,0.0,0.0,1.0,0.0,0.0,0.0,1.0,0
1489585232068052004,294,1489585232065254508,,0,0,46.5185279846,6.56692266464,2.77602830977e-40,1.0,0.0,0.0,0.0,1.0,0.0,0.0,0.0,1.0,0
1489585232167765185,295,1489585232165133991,,0,0,46.5185279846,6.56692266464,2.77602830977e-40,1.0,0.0,0.0,0.0,1.0,0.0,0.0,0.0,1.0,0
1489585232268565291,296,1489585232265237119,,0,0,46.5185241699,6.56693124771,2.77602830977e-40,1.0,0.0,0.0,0.0,1.0,0.0,0.0,0.0,1.0,0
1489585232367619047,297,1489585232365142748,,0,0,46.5185241699,6.56693124771,2.77602830977e-40,1.0,0.0,0.0,0.0,1.0,0.0,0.0,0.0,1.0,0
1489585232468564882,298,1489585232465243533,,0,0,46.5185241699,6.5669298172,2.77602830977e-40,1.0,0.0,0.0,0.0,1.0,0.0,0.0,0.0,1.0,0
1489585232568013064,299,1489585232565146870,,0,0,46.5185241699,6.5669298172,2.77602830977e-40,1.0,0.0,0.0,0.0,1.0,0.0,0.0,0.0,1.0,0
1489585232667437704,300,1489585232665250780,,0,0,46.5185241699,6.56693077087,2.77602830977e-40,1.0,0.0,0.0,0.0,1.0,0.0,0.0,0.0,1.0,0
1489585232768794580,301,1489585232765152451,,0,0,46.5185241699,6.56693077087,2.77602830977e-40,1.0,0.0,0.0,0.0,1.0,0.0,0.0,0.0,1.0,0
1489585232869082032,302,1489585232865641204,,0,0,46.5185241699,6.56693267822,2.77602830977e-40,1.0,0.0,0.0,0.0,1.0,0.0,0.0,0.0,1.0,0
1489585232968247505,303,1489585232965122406,,0,0,46.5185241699,6.56693267822,2.77602830977e-40,1.0,0.0,0.0,0.0,1.0,0.0,0.0,0.0,1.0,0
1489585233068604071,304,1489585233065242774,,0,0,46.5185241699,6.56692934036,2.77602830977e-40,1.0,0.0,0.0,0.0,1.0,0.0,0.0,0.0,1.0,0
1489585233167505118,305,1489585233165144653,,0,0,46.5185241699,6.56692934036,2.77602830977e-40,1.0,0.0,0.0,0.0,1.0,0.0,0.0,0.0,1.0,0
1489585233267778194,306,1489585233265290542,,0,0,46.5185127258,6.5669426918,2.77602830977e-40,1.0,0.0,0.0,0.0,1.0,0.0,0.0,0.0,1.0,0
1489585233367539396,307,1489585233365137265,,0,0,46.5185127258,6.5669426918,2.77602830977e-40,1.0,0.0,0.0,0.0,1.0,0.0,0.0,0.0,1.0,0
1489585233467599660,308,1489585233465237164,,0,0,46.5185127258,6.56694173813,2.77602830977e-40,1.0,0.0,0.0,0.0,1.0,0.0,0.0,0.0,1.0,0
1489585233567621539,309,1489585233565148991,,0,0,46.5185127258,6.56694173813,2.77602830977e-40,1.0,0.0,0.0,0.0,1.0,0.0,0.0,0.0,1.0,0
1489585233668565812,310,1489585233665250973,,0,0,46.5185127258,6.56694555283,2.77602830977e-40,1.0,0.0,0.0,0.0,1.0,0.0,0.0,0.0,1.0,0
1489585233769914147,311,1489585233765146550,,0,0,46.5185127258,6.56694555283,2.77602830977e-40,1.0,0.0,0.0,0.0,1.0,0.0,0.0,0.0,1.0,0
1489585233868902382,312,1489585233865233168,,0,0,46.5185127258,6.56695127487,2.77602830977e-40,1.0,0.0,0.0,0.0,1.0,0.0,0.0,0.0,1.0,0
1489585233969011239,313,1489585233965142495,,0,0,46.5185127258,6.56695127487,2.77602830977e-40,1.0,0.0,0.0,0.0,1.0,0.0,0.0,0.0,1.0,0
1489585234069031087,314,1489585234065244322,,0,0,46.5185050964,6.56695604324,2.77602830977e-40,1.0,0.0,0.0,0.0,1.0,0.0,0.0,0.0,1.0,0
1489585234172583168,315,1489585234165139378,,0,0,46.5185050964,6.56695604324,2.77602830977e-40,1.0,0.0,0.0,0.0,1.0,0.0,0.0,0.0,1.0,0
1489585234267972189,316,1489585234265446047,,0,0,46.5185127258,6.56694746017,2.77602830977e-40,1.0,0.0,0.0,0.0,1.0,0.0,0.0,0.0,1.0,0
1489585234369241670,317,1489585234365145218,,0,0,46.5185127258,6.56694746017,2.77602830977e-40,1.0,0.0,0.0,0.0,1.0,0.0,0.0,0.0,1.0,0
1489585234467919957,318,1489585234465228086,,0,0,46.5185089111,6.56695270538,2.77602830977e-40,1.0,0.0,0.0,0.0,1.0,0.0,0.0,0.0,1.0,0
1489585234567692670,319,1489585234565271267,,0,0,46.5185089111,6.56695270538,2.77602830977e-40,1.0,0.0,0.0,0.0,1.0,0.0,0.0,0.0,1.0,0
1489585234669845326,320,1489585234665293198,,0,0,46.5185127258,6.56695079803,2.77602830977e-40,1.0,0.0,0.0,0.0,1.0,0.0,0.0,0.0,1.0,0
1489585234769280748,321,1489585234765143410,,0,0,46.5185127258,6.56695079803,2.77602830977e-40,1.0,0.0,0.0,0.0,1.0,0.0,0.0,0.0,1.0,0
1489585234868805283,322,1489585234865255653,,0,0,46.5185050964,6.5669593811,2.77602830977e-40,1.0,0.0,0.0,0.0,1.0,0.0,0.0,0.0,1.0,0
1489585234967971955,323,1489585234965253522,,0,0,46.5185050964,6.5669593811,2.77602830977e-40,1.0,0.0,0.0,0.0,1.0,0.0,0.0,0.0,1.0,0
1489585235069502529,324,1489585235065271598,,0,0,46.5185050964,6.56695747375,2.77602830977e-40,1.0,0.0,0.0,0.0,1.0,0.0,0.0,0.0,1.0,0
1489585235167599828,325,1489585235165125300,,0,0,46.5185050964,6.56695747375,2.77602830977e-40,1.0,0.0,0.0,0.0,1.0,0.0,0.0,0.0,1.0,0
1489585235267844206,326,1489585235265247231,,0,0,46.5185012817,6.56696462631,2.77602830977e-40,1.0,0.0,0.0,0.0,1.0,0.0,0.0,0.0,1.0,0
1489585235367473377,327,1489585235365147755,,0,0,46.5185012817,6.56696462631,2.77602830977e-40,1.0,0.0,0.0,0.0,1.0,0.0,0.0,0.0,1.0,0
1489585235467627703,328,1489585235465275624,,0,0,46.518497467,6.56697130203,2.77602830977e-40,1.0,0.0,0.0,0.0,1.0,0.0,0.0,0.0,1.0,0
1489585235567917654,329,1489585235565132294,,0,0,46.518497467,6.56697130203,2.77602830977e-40,1.0,0.0,0.0,0.0,1.0,0.0,0.0,0.0,1.0,0
1489585235667746825,330,1489585235665244694,,0,0,46.5185012817,6.56696510315,2.77602830977e-40,1.0,0.0,0.0,0.0,1.0,0.0,0.0,0.0,1.0,0
1489585235768574119,331,1489585235765134385,,0,0,46.5185012817,6.56696510315,2.77602830977e-40,1.0,0.0,0.0,0.0,1.0,0.0,0.0,0.0,1.0,0
1489585235868635581,332,1489585235865240326,,0,0,46.5185012817,6.56696844101,2.77602830977e-40,1.0,0.0,0.0,0.0,1.0,0.0,0.0,0.0,1.0,0
1489585235969092772,333,1489585235965143715,,0,0,46.5185012817,6.56696844101,2.77602830977e-40,1.0,0.0,0.0,0.0,1.0,0.0,0.0,0.0,1.0,0
1489585236068747984,334,1489585236065233302,,0,0,46.518497467,6.56697130203,2.77602830977e-40,1.0,0.0,0.0,0.0,1.0,0.0,0.0,0.0,1.0,0
1489585236168925175,335,1489585236165132993,,0,0,46.518497467,6.56697130203,2.77602830977e-40,1.0,0.0,0.0,0.0,1.0,0.0,0.0,0.0,1.0,0
1489585236268682367,336,1489585236265288101,,0,0,46.5184898376,6.5669760704,2.77602830977e-40,1.0,0.0,0.0,0.0,1.0,0.0,0.0,0.0,1.0,0
1489585236368368986,337,1489585236365133470,,0,0,46.5184898376,6.5669760704,2.77602830977e-40,1.0,0.0,0.0,0.0,1.0,0.0,0.0,0.0,1.0,0
1489585236468132063,338,1489585236465236546,,0,0,46.5184898376,6.56697654724,2.77602830977e-40,1.0,0.0,0.0,0.0,1.0,0.0,0.0,0.0,1.0,0
1489585236568361910,339,1489585236565141550,,0,0,46.5184898376,6.56697654724,2.77602830977e-40,1.0,0.0,0.0,0.0,1.0,0.0,0.0,0.0,1.0,0
1489585236670444098,340,1489585236665255095,,0,0,46.5184822083,6.56698656082,2.77602830977e-40,1.0,0.0,0.0,0.0,1.0,0.0,0.0,0.0,1.0,0
1489585236768211969,341,1489585236765133328,,0,0,46.5184822083,6.56698656082,2.77602830977e-40,1.0,0.0,0.0,0.0,1.0,0.0,0.0,0.0,1.0,0
1489585236868263536,342,1489585236865249530,,0,0,46.5184860229,6.56698417664,2.77602830977e-40,1.0,0.0,0.0,0.0,1.0,0.0,0.0,0.0,1.0,0
1489585236969137080,343,1489585236965136825,,0,0,46.5184860229,6.56698417664,2.77602830977e-40,1.0,0.0,0.0,0.0,1.0,0.0,0.0,0.0,1.0,0
1489585237068893334,344,1489585237065666203,,0,0,46.5184860229,6.56698274612,2.77602830977e-40,1.0,0.0,0.0,0.0,1.0,0.0,0.0,0.0,1.0,0
1489585237169064483,345,1489585237165141624,,0,0,46.5184860229,6.56698274612,2.77602830977e-40,1.0,0.0,0.0,0.0,1.0,0.0,0.0,0.0,1.0,0
1489585237267935478,346,1489585237265257722,,0,0,46.5184860229,6.56697893143,2.77602830977e-40,1.0,0.0,0.0,0.0,1.0,0.0,0.0,0.0,1.0,0
1489585237368777616,347,1489585237365139601,,0,0,46.5184860229,6.56697893143,2.77602830977e-40,1.0,0.0,0.0,0.0,1.0,0.0,0.0,0.0,1.0,0
1489585237469224650,348,1489585237465252677,,0,0,46.5184822083,6.56698322296,2.77602830977e-40,1.0,0.0,0.0,0.0,1.0,0.0,0.0,0.0,1.0,0
1489585237568736790,349,1489585237565144920,,0,0,46.5184822083,6.56698322296,2.77602830977e-40,1.0,0.0,0.0,0.0,1.0,0.0,0.0,0.0,1.0,0
1489585237668526273,350,1489585237665255809,,0,0,46.5184860229,6.56697797775,2.77602830977e-40,1.0,0.0,0.0,0.0,1.0,0.0,0.0,0.0,1.0,0
1489585237768756849,351,1489585237765137115,,0,0,46.5184860229,6.56697797775,2.77602830977e-40,1.0,0.0,0.0,0.0,1.0,0.0,0.0,0.0,1.0,0
1489585237869059561,352,1489585237865273994,,0,0,46.5184860229,6.56697702408,2.77602830977e-40,1.0,0.0,0.0,0.0,1.0,0.0,0.0,0.0,1.0,0
1489585237968837586,353,1489585237965139935,,0,0,46.5184860229,6.56697702408,2.77602830977e-40,1.0,0.0,0.0,0.0,1.0,0.0,0.0,0.0,1.0,0
1489585238067394206,354,1489585238065242126,,0,0,46.5184783936,6.5669836998,2.77602830977e-40,1.0,0.0,0.0,0.0,1.0,0.0,0.0,0.0,1.0,0
1489585238168865145,355,1489585238165141870,,0,0,46.5184783936,6.5669836998,2.77602830977e-40,1.0,0.0,0.0,0.0,1.0,0.0,0.0,0.0,1.0,0
1489585238270132178,356,1489585238265240467,,0,0,46.5184745789,6.56698465347,2.77602830977e-40,1.0,0.0,0.0,0.0,1.0,0.0,0.0,0.0,1.0,0
1489585238368674111,357,1489585238365139013,,0,0,46.5184745789,6.56698465347,2.77602830977e-40,1.0,0.0,0.0,0.0,1.0,0.0,0.0,0.0,1.0,0
1489585238469119062,358,1489585238465247662,,0,0,46.5184783936,6.56698083878,2.77602830977e-40,1.0,0.0,0.0,0.0,1.0,0.0,0.0,0.0,1.0,0
1489585238569226670,359,1489585238565133239,,0,0,46.5184783936,6.56698083878,2.77602830977e-40,1.0,0.0,0.0,0.0,1.0,0.0,0.0,0.0,1.0,0
1489585238671027400,360,1489585238665220742,,0,0,46.5184669495,6.56698894501,2.77602830977e-40,1.0,0.0,0.0,0.0,1.0,0.0,0.0,0.0,1.0,0
1489585238769101574,361,1489585238765140486,,0,0,46.5184669495,6.56698894501,2.77602830977e-40,1.0,0.0,0.0,0.0,1.0,0.0,0.0,0.0,1.0,0
1489585238868925848,362,1489585238865243302,,0,0,46.5184669495,6.56699037552,2.77602830977e-40,1.0,0.0,0.0,0.0,1.0,0.0,0.0,0.0,1.0,0
1489585238969067414,363,1489585238965141535,,0,0,46.5184669495,6.56699037552,2.77602830977e-40,1.0,0.0,0.0,0.0,1.0,0.0,0.0,0.0,1.0,0
1489585239069689605,364,1489585239065245913,,0,0,46.5184745789,6.56698036194,2.77602830977e-40,1.0,0.0,0.0,0.0,1.0,0.0,0.0,0.0,1.0,0
1489585239171488251,365,1489585239165130709,,0,0,46.5184745789,6.56698036194,2.77602830977e-40,1.0,0.0,0.0,0.0,1.0,0.0,0.0,0.0,1.0,0
1489585239269137321,366,1489585239265256233,,0,0,46.5184707642,6.56698179245,2.77602830977e-40,1.0,0.0,0.0,0.0,1.0,0.0,0.0,0.0,1.0,0
1489585239368563211,367,1489585239365150091,,0,0,46.5184707642,6.56698179245,2.77602830977e-40,1.0,0.0,0.0,0.0,1.0,0.0,0.0,0.0,1.0,0
1489585239469023579,368,1489585239465333637,,0,0,46.5184669495,6.56698656082,2.77602830977e-40,1.0,0.0,0.0,0.0,1.0,0.0,0.0,0.0,1.0,0
1489585239568643479,369,1489585239565148432,,0,0,46.5184669495,6.56698656082,2.77602830977e-40,1.0,0.0,0.0,0.0,1.0,0.0,0.0,0.0,1.0,0
1489585239668705514,370,1489585239665238071,,0,0,46.5184631348,6.56698894501,2.77602830977e-40,1.0,0.0,0.0,0.0,1.0,0.0,0.0,0.0,1.0,0
1489585239767381665,371,1489585239765138856,,0,0,46.5184631348,6.56698894501,2.77602830977e-40,1.0,0.0,0.0,0.0,1.0,0.0,0.0,0.0,1.0,0
1489585239867388857,372,1489585239865237662,,0,0,46.5184593201,6.56699085236,2.77602830977e-40,1.0,0.0,0.0,0.0,1.0,0.0,0.0,0.0,1.0,0
1489585239968682712,373,1489585239965135999,,0,0,46.5184593201,6.56699085236,2.77602830977e-40,1.0,0.0,0.0,0.0,1.0,0.0,0.0,0.0,1.0,0
1489585240068850893,374,1489585240065237253,,0,0,46.5184593201,6.5669875145,2.77602830977e-40,1.0,0.0,0.0,0.0,1.0,0.0,0.0,0.0,1.0,0
1489585240168846574,375,1489585240165137621,,0,0,46.5184593201,6.5669875145,2.77602830977e-40,1.0,0.0,0.0,0.0,1.0,0.0,0.0,0.0,1.0,0
1489585240267665746,376,1489585240265232000,,0,0,46.5184555054,6.56699371338,2.77602830977e-40,1.0,0.0,0.0,0.0,1.0,0.0,0.0,0.0,1.0,0
1489585240367702937,377,1489585240365130076,,0,0,46.5184555054,6.56699371338,2.77602830977e-40,1.0,0.0,0.0,0.0,1.0,0.0,0.0,0.0,1.0,0
1489585240468792679,378,1489585240465231695,,0,0,46.5184516907,6.56699419022,2.77602830977e-40,1.0,0.0,0.0,0.0,1.0,0.0,0.0,0.0,1.0,0
1489585240567362789,379,1489585240565149928,,0,0,46.5184516907,6.56699419022,2.77602830977e-40,1.0,0.0,0.0,0.0,1.0,0.0,0.0,0.0,1.0,0
1489585240667382115,380,1489585240665237848,,0,0,46.5184555054,6.5669875145,2.77602830977e-40,1.0,0.0,0.0,0.0,1.0,0.0,0.0,0.0,1.0,0
1489585240767830191,381,1489585240765140143,,0,0,46.5184555054,6.5669875145,2.77602830977e-40,1.0,0.0,0.0,0.0,1.0,0.0,0.0,0.0,1.0,0
1489585240867355404,382,1489585240865249939,,0,0,46.5184555054,6.56698608398,2.77602830977e-40,1.0,0.0,0.0,0.0,1.0,0.0,0.0,0.0,1.0,0
1489585240967384731,383,1489585240965138015,,0,0,46.5184555054,6.56698608398,2.77602830977e-40,1.0,0.0,0.0,0.0,1.0,0.0,0.0,0.0,1.0,0
1489585241067374734,384,1489585241065247811,,0,0,46.5184516907,6.56698846817,2.77602830977e-40,1.0,0.0,0.0,0.0,1.0,0.0,0.0,0.0,1.0,0
1489585241167620154,385,1489585241165132450,,0,0,46.5184516907,6.56698846817,2.77602830977e-40,1.0,0.0,0.0,0.0,1.0,0.0,0.0,0.0,1.0,0
1489585241267710939,386,1489585241265440057,,0,0,46.518447876,6.56699228287,2.77602830977e-40,1.0,0.0,0.0,0.0,1.0,0.0,0.0,0.0,1.0,0
1489585241369400732,387,1489585241365143499,,0,0,46.518447876,6.56699228287,2.77602830977e-40,1.0,0.0,0.0,0.0,1.0,0.0,0.0,0.0,1.0,0
1489585241467959696,388,1489585241465227305,,0,0,46.5184402466,6.56699562073,2.77602830977e-40,1.0,0.0,0.0,0.0,1.0,0.0,0.0,0.0,1.0,0
1489585241567444128,389,1489585241565139913,,0,0,46.5184402466,6.56699562073,2.77602830977e-40,1.0,0.0,0.0,0.0,1.0,0.0,0.0,0.0,1.0,0
1489585241668394182,390,1489585241665273770,,0,0,46.5184364319,6.56699848175,2.77602830977e-40,1.0,0.0,0.0,0.0,1.0,0.0,0.0,0.0,1.0,0
1489585241769118143,391,1489585241765130806,,0,0,46.5184364319,6.56699848175,2.77602830977e-40,1.0,0.0,0.0,0.0,1.0,0.0,0.0,0.0,1.0,0
1489585241867873409,392,1489585241865226695,,0,0,46.5184364319,6.56699514389,2.77602830977e-40,1.0,0.0,0.0,0.0,1.0,0.0,0.0,0.0,1.0,0
1489585241968436225,393,1489585241965139094,,0,0,46.5184364319,6.56699514389,2.77602830977e-40,1.0,0.0,0.0,0.0,1.0,0.0,0.0,0.0,1.0,0
1489585242068281645,394,1489585242065270764,,0,0,46.5184364319,6.56698989868,2.77602830977e-40,1.0,0.0,0.0,0.0,1.0,0.0,0.0,0.0,1.0,0
1489585242169496699,395,1489585242165150091,,0,0,46.5184364319,6.56698989868,2.77602830977e-40,1.0,0.0,0.0,0.0,1.0,0.0,0.0,0.0,1.0,0
1489585242268189622,396,1489585242265265928,,0,0,46.5184364319,6.56698942184,2.77602830977e-40,1.0,0.0,0.0,0.0,1.0,0.0,0.0,0.0,1.0,0
1489585242368236865,397,1489585242365136401,,0,0,46.5184364319,6.56698942184,2.77602830977e-40,1.0,0.0,0.0,0.0,1.0,0.0,0.0,0.0,1.0,0
1489585242468681712,398,1489585242465303696,,0,0,46.5184364319,6.56699037552,2.77602830977e-40,1.0,0.0,0.0,0.0,1.0,0.0,0.0,0.0,1.0,0
1489585242569227600,399,1489585242565137450,,0,0,46.5184364319,6.56699037552,2.77602830977e-40,1.0,0.0,0.0,0.0,1.0,0.0,0.0,0.0,1.0,0
1489585242667894689,400,1489585242665251308,,0,0,46.5184364319,6.56698799133,2.77602830977e-40,1.0,0.0,0.0,0.0,1.0,0.0,0.0,0.0,1.0,0
1489585242768076047,401,1489585242765138238,,0,0,46.5184364319,6.56698799133,2.77602830977e-40,1.0,0.0,0.0,0.0,1.0,0.0,0.0,0.0,1.0,0
1489585242869028965,402,1489585242865298242,,0,0,46.5184364319,6.56698513031,2.77602830977e-40,1.0,0.0,0.0,0.0,1.0,0.0,0.0,0.0,1.0,0
1489585242974929585,403,1489585242965139027,,0,0,46.5184364319,6.56698513031,2.77602830977e-40,1.0,0.0,0.0,0.0,1.0,0.0,0.0,0.0,1.0,0
1489585243069347827,404,1489585243065258979,,0,0,46.5184326172,6.56698799133,2.77602830977e-40,1.0,0.0,0.0,0.0,1.0,0.0,0.0,0.0,1.0,0
1489585243170540797,405,1489585243165139764,,0,0,46.5184326172,6.56698799133,2.77602830977e-40,1.0,0.0,0.0,0.0,1.0,0.0,0.0,0.0,1.0,0
1489585243268058305,406,1489585243265320965,,0,0,46.5184249878,6.56699132919,2.77602830977e-40,1.0,0.0,0.0,0.0,1.0,0.0,0.0,0.0,1.0,0
1489585243369008359,407,1489585243365144980,,0,0,46.5184249878,6.56699132919,2.77602830977e-40,1.0,0.0,0.0,0.0,1.0,0.0,0.0,0.0,1.0,0
1489585243468227270,408,1489585243465239098,,0,0,46.5184211731,6.56699228287,2.77602830977e-40,1.0,0.0,0.0,0.0,1.0,0.0,0.0,0.0,1.0,0
1489585243568398472,409,1489585243565141081,,0,0,46.5184211731,6.56699228287,2.77602830977e-40,1.0,0.0,0.0,0.0,1.0,0.0,0.0,0.0,1.0,0
1489585243667594779,410,1489585243665252386,,0,0,46.5184249878,6.56698846817,2.77602830977e-40,1.0,0.0,0.0,0.0,1.0,0.0,0.0,0.0,1.0,0
1489585243769687331,411,1489585243765151088,,0,0,46.5184249878,6.56698846817,2.77602830977e-40,1.0,0.0,0.0,0.0,1.0,0.0,0.0,0.0,1.0,0
1489585243869722856,412,1489585243865241821,,0,0,46.5184211731,6.5669875145,2.77602830977e-40,1.0,0.0,0.0,0.0,1.0,0.0,0.0,0.0,1.0,0
1489585243967891821,413,1489585243965145471,,0,0,46.5184211731,6.5669875145,2.77602830977e-40,1.0,0.0,0.0,0.0,1.0,0.0,0.0,0.0,1.0,0
1489585244068069376,414,1489585244065415265,,0,0,46.5184211731,6.56698656082,2.77602830977e-40,1.0,0.0,0.0,0.0,1.0,0.0,0.0,0.0,1.0,0
1489585244170382605,415,1489585244165234228,,0,0,46.5184211731,6.56698656082,2.77602830977e-40,1.0,0.0,0.0,0.0,1.0,0.0,0.0,0.0,1.0,0
1489585244268384852,416,1489585244265296575,,0,0,46.5184173584,6.56698942184,2.77602830977e-40,1.0,0.0,0.0,0.0,1.0,0.0,0.0,0.0,1.0,0
1489585244368413293,417,1489585244365133871,,0,0,46.5184173584,6.56698942184,2.77602830977e-40,1.0,0.0,0.0,0.0,1.0,0.0,0.0,0.0,1.0,0
1489585244468302620,418,1489585244465290385,,0,0,46.5184135437,6.56698846817,2.77602830977e-40,1.0,0.0,0.0,0.0,1.0,0.0,0.0,0.0,1.0,0
1489585244569884808,419,1489585244565142159,,0,0,46.5184135437,6.56698846817,2.77602830977e-40,1.0,0.0,0.0,0.0,1.0,0.0,0.0,0.0,1.0,0
1489585244668105232,420,1489585244665277684,,0,0,46.518409729,6.56698703766,2.77602830977e-40,1.0,0.0,0.0,0.0,1.0,0.0,0.0,0.0,1.0,0
1489585244768196173,421,1489585244765141125,,0,0,46.518409729,6.56698703766,2.77602830977e-40,1.0,0.0,0.0,0.0,1.0,0.0,0.0,0.0,1.0,0
1489585244868872738,422,1489585244865282379,,0,0,46.518409729,6.56698513031,2.77602830977e-40,1.0,0.0,0.0,0.0,1.0,0.0,0.0,0.0,1.0,0
1489585244969877792,423,1489585244965246185,,0,0,46.518409729,6.56698513031,2.77602830977e-40,1.0,0.0,0.0,0.0,1.0,0.0,0.0,0.0,1.0,0
1489585245067984309,424,1489585245065261240,,0,0,46.5184059143,6.56698465347,2.77602830977e-40,1.0,0.0,0.0,0.0,1.0,0.0,0.0,0.0,1.0,0
1489585245167873063,425,1489585245165139057,,0,0,46.5184059143,6.56698465347,2.77602830977e-40,1.0,0.0,0.0,0.0,1.0,0.0,0.0,0.0,1.0,0
1489585245267919681,426,1489585245265276925,,0,0,46.5184020996,6.56698465347,2.77602830977e-40,1.0,0.0,0.0,0.0,1.0,0.0,0.0,0.0,1.0,0
1489585245370269942,427,1489585245366360885,,0,0,46.5184020996,6.56698465347,2.77602830977e-40,1.0,0.0,0.0,0.0,1.0,0.0,0.0,0.0,1.0,0
1489585245467610679,428,1489585245465278339,,0,0,46.5184020996,6.56698465347,2.77602830977e-40,1.0,0.0,0.0,0.0,1.0,0.0,0.0,0.0,1.0,0
1489585245568373390,429,1489585245565150270,,0,0,46.5184020996,6.56698465347,2.77602830977e-40,1.0,0.0,0.0,0.0,1.0,0.0,0.0,0.0,1.0,0
1489585245667961050,430,1489585245665312877,,0,0,46.5184020996,6.56698322296,2.77602830977e-40,1.0,0.0,0.0,0.0,1.0,0.0,0.0,0.0,1.0,0
1489585245770571519,431,1489585245765252464,,0,0,46.5184020996,6.56698322296,2.77602830977e-40,1.0,0.0,0.0,0.0,1.0,0.0,0.0,0.0,1.0,0
1489585245868624650,432,1489585245865315489,,0,0,46.5183982849,6.56698322296,2.77602830977e-40,1.0,0.0,0.0,0.0,1.0,0.0,0.0,0.0,1.0,0
1489585245968351373,433,1489585245965244190,,0,0,46.5183982849,6.56698322296,2.77602830977e-40,1.0,0.0,0.0,0.0,1.0,0.0,0.0,0.0,1.0,0
1489585246068320231,434,1489585246065374454,,0,0,46.5183944702,6.56698274612,2.77602830977e-40,1.0,0.0,0.0,0.0,1.0,0.0,0.0,0.0,1.0,0
1489585246169399087,435,1489585246165566645,,0,0,46.5183944702,6.56698274612,2.77602830977e-40,1.0,0.0,0.0,0.0,1.0,0.0,0.0,0.0,1.0,0
1489585246267990604,436,1489585246265309410,,0,0,46.5183944702,6.56698226929,2.77602830977e-40,1.0,0.0,0.0,0.0,1.0,0.0,0.0,0.0,1.0,0
1489585246369006595,437,1489585246365153164,,0,0,46.5183944702,6.56698226929,2.77602830977e-40,1.0,0.0,0.0,0.0,1.0,0.0,0.0,0.0,1.0,0
1489585246468264621,438,1489585246465403792,,0,0,46.5183906555,6.56698179245,2.77602830977e-40,1.0,0.0,0.0,0.0,1.0,0.0,0.0,0.0,1.0,0
1489585246568892697,439,1489585246565321973,,0,0,46.5183906555,6.56698179245,2.77602830977e-40,1.0,0.0,0.0,0.0,1.0,0.0,0.0,0.0,1.0,0
1489585246668736451,440,1489585246665308227,,0,0,46.5183906555,6.56698179245,2.77602830977e-40,1.0,0.0,0.0,0.0,1.0,0.0,0.0,0.0,1.0,0
1489585246768285986,441,1489585246765243595,,0,0,46.5183906555,6.56698179245,2.77602830977e-40,1.0,0.0,0.0,0.0,1.0,0.0,0.0,0.0,1.0,0
1489585246868824791,442,1489585246865238547,,0,0,46.5183868408,6.56698179245,2.77602830977e-40,1.0,0.0,0.0,0.0,1.0,0.0,0.0,0.0,1.0,0
1489585246968052244,443,1489585246965142613,,0,0,46.5183868408,6.56698179245,2.77602830977e-40,1.0,0.0,0.0,0.0,1.0,0.0,0.0,0.0,1.0,0
1489585247070016776,444,1489585247065316367,,0,0,46.5183868408,6.56698131561,2.77602830977e-40,1.0,0.0,0.0,0.0,1.0,0.0,0.0,0.0,1.0,0
1489585247168239074,445,1489585247165140277,,0,0,46.5183868408,6.56698131561,2.77602830977e-40,1.0,0.0,0.0,0.0,1.0,0.0,0.0,0.0,1.0,0
1489585247268216370,446,1489585247265376426,,0,0,46.5183830261,6.5669798851,2.77602830977e-40,1.0,0.0,0.0,0.0,1.0,0.0,0.0,0.0,1.0,0
1489585247369397674,447,1489585247365255388,,0,0,46.5183830261,6.5669798851,2.77602830977e-40,1.0,0.0,0.0,0.0,1.0,0.0,0.0,0.0,1.0,0
1489585247468077836,448,1489585247465345600,,0,0,46.5183830261,6.56697893143,2.77602830977e-40,1.0,0.0,0.0,0.0,1.0,0.0,0.0,0.0,1.0,0
1489585247568404297,449,1489585247565143417,,0,0,46.5183830261,6.56697893143,2.77602830977e-40,1.0,0.0,0.0,0.0,1.0,0.0,0.0,0.0,1.0,0
1489585247667881020,450,1489585247665252431,,0,0,46.5183792114,6.56697797775,2.77602830977e-40,1.0,0.0,0.0,0.0,1.0,0.0,0.0,0.0,1.0,0
1489585247767100348,451,1489585247765146341,,0,0,46.5183792114,6.56697797775,2.77602830977e-40,1.0,0.0,0.0,0.0,1.0,0.0,0.0,0.0,1.0,0
1489585247868217850,452,1489585247865244573,,0,0,46.5183792114,6.56697654724,2.77602830977e-40,1.0,0.0,0.0,0.0,1.0,0.0,0.0,0.0,1.0,0
1489585247970209309,453,1489585247965139525,,0,0,46.5183792114,6.56697654724,2.77602830977e-40,1.0,0.0,0.0,0.0,1.0,0.0,0.0,0.0,1.0,0
1489585248067342755,454,1489585248065230935,,0,0,46.5183753967,6.56697559357,2.77602830977e-40,1.0,0.0,0.0,0.0,1.0,0.0,0.0,0.0,1.0,0
1489585248168354059,455,1489585248165129585,,0,0,46.5183753967,6.56697559357,2.77602830977e-40,1.0,0.0,0.0,0.0,1.0,0.0,0.0,0.0,1.0,0
1489585248267610574,456,1489585248265259015,,0,0,46.5183753967,6.56697511673,2.77602830977e-40,1.0,0.0,0.0,0.0,1.0,0.0,0.0,0.0,1.0,0
1489585248367389537,457,1489585248365134540,,0,0,46.5183753967,6.56697511673,2.77602830977e-40,1.0,0.0,0.0,0.0,1.0,0.0,0.0,0.0,1.0,0
1489585248468617091,458,1489585248465132200,,0,0,46.518371582,6.56697368622,2.77602830977e-40,1.0,0.0,0.0,0.0,1.0,0.0,0.0,0.0,1.0,0
1489585248567491367,459,1489585248565142620,,0,0,46.518371582,6.56697368622,2.77602830977e-40,1.0,0.0,0.0,0.0,1.0,0.0,0.0,0.0,1.0,0
1489585248668203557,460,1489585248665261582,,0,0,46.518371582,6.5669708252,2.77602830977e-40,1.0,0.0,0.0,0.0,1.0,0.0,0.0,0.0,1.0,0
1489585248768773091,461,1489585248765234919,,0,0,46.518371582,6.5669708252,2.77602830977e-40,1.0,0.0,0.0,0.0,1.0,0.0,0.0,0.0,1.0,0
1489585248867213618,462,1489585248865255756,,0,0,46.5183677673,6.56696844101,2.77602830977e-40,1.0,0.0,0.0,0.0,1.0,0.0,0.0,0.0,1.0,0
1489585248967883933,463,1489585248965135708,,0,0,46.5183677673,6.56696844101,2.77602830977e-40,1.0,0.0,0.0,0.0,1.0,0.0,0.0,0.0,1.0,0
1489585249067964666,464,1489585249065257326,,0,0,46.5183677673,6.56696605682,2.77602830977e-40,1.0,0.0,0.0,0.0,1.0,0.0,0.0,0.0,1.0,0
1489585249167642795,465,1489585249165132695,,0,0,46.5183677673,6.56696605682,2.77602830977e-40,1.0,0.0,0.0,0.0,1.0,0.0,0.0,0.0,1.0,0
1489585249268153319,466,1489585249265490406,,0,0,46.5183639526,6.56696367264,2.77602830977e-40,1.0,0.0,0.0,0.0,1.0,0.0,0.0,0.0,1.0,0
1489585249368017229,467,1489585249365134994,,0,0,46.5183639526,6.56696367264,2.77602830977e-40,1.0,0.0,0.0,0.0,1.0,0.0,0.0,0.0,1.0,0
1489585249468703065,468,1489585249465486664,,0,0,46.5183601379,6.56696224213,2.77602830977e-40,1.0,0.0,0.0,0.0,1.0,0.0,0.0,0.0,1.0,0
1489585249568193695,469,1489585249565135470,,0,0,46.5183601379,6.56696224213,2.77602830977e-40,1.0,0.0,0.0,0.0,1.0,0.0,0.0,0.0,1.0,0
1489585249669101562,470,1489585249665268442,,0,0,46.5183601379,6.5669593811,2.77602830977e-40,1.0,0.0,0.0,0.0,1.0,0.0,0.0,0.0,1.0,0
1489585249767954484,471,1489585249765134800,,0,0,46.5183601379,6.5669593811,2.77602830977e-40,1.0,0.0,0.0,0.0,1.0,0.0,0.0,0.0,1.0,0
1489585249868214643,472,1489585249865227356,,0,0,46.5183563232,6.56695795059,2.77602830977e-40,1.0,0.0,0.0,0.0,1.0,0.0,0.0,0.0,1.0,0
1489585249968272928,473,1489585249965138610,,0,0,46.5183563232,6.56695795059,2.77602830977e-40,1.0,0.0,0.0,0.0,1.0,0.0,0.0,0.0,1.0,0
1489585250069065431,474,1489585250065488196,,0,0,46.5183563232,6.56695699692,2.77602830977e-40,1.0,0.0,0.0,0.0,1.0,0.0,0.0,0.0,1.0,0
1489585250169545902,475,1489585250165495388,,0,0,46.5183563232,6.56695699692,2.77602830977e-40,1.0,0.0,0.0,0.0,1.0,0.0,0.0,0.0,1.0,0
1489585250268376377,476,1489585250265263308,,0,0,46.5183525085,6.56695461273,2.77602830977e-40,1.0,0.0,0.0,0.0,1.0,0.0,0.0,0.0,1.0,0
1489585250370933251,477,1489585250365128469,,0,0,46.5183525085,6.56695461273,2.77602830977e-40,1.0,0.0,0.0,0.0,1.0,0.0,0.0,0.0,1.0,0
1489585250468787633,478,1489585250465454045,,0,0,46.5183525085,6.56695127487,2.77602830977e-40,1.0,0.0,0.0,0.0,1.0,0.0,0.0,0.0,1.0,0
1489585250570497791,479,1489585250565135976,,0,0,46.5183525085,6.56695127487,2.77602830977e-40,1.0,0.0,0.0,0.0,1.0,0.0,0.0,0.0,1.0,0
1489585250669333369,480,1489585250665445406,,0,0,46.5183486938,6.56694984436,2.77602830977e-40,1.0,0.0,0.0,0.0,1.0,0.0,0.0,0.0,1.0,0
1489585250768813322,481,1489585250765146192,,0,0,46.5183486938,6.56694984436,2.77602830977e-40,1.0,0.0,0.0,0.0,1.0,0.0,0.0,0.0,1.0,0
1489585250868894002,482,1489585250865449632,,0,0,46.5183448792,6.5669465065,2.77602830977e-40,1.0,0.0,0.0,0.0,1.0,0.0,0.0,0.0,1.0,0
1489585250969814057,483,1489585250965146980,,0,0,46.5183448792,6.5669465065,2.77602830977e-40,1.0,0.0,0.0,0.0,1.0,0.0,0.0,0.0,1.0,0
1489585251070251299,484,1489585251065455682,,0,0,46.5183448792,6.56694555283,2.77602830977e-40,1.0,0.0,0.0,0.0,1.0,0.0,0.0,0.0,1.0,0
1489585251168472295,485,1489585251165132769,,0,0,46.5183448792,6.56694555283,2.77602830977e-40,1.0,0.0,0.0,0.0,1.0,0.0,0.0,0.0,1.0,0
1489585251270238286,486,1489585251265243971,,0,0,46.5183410645,6.56694364548,2.77602830977e-40,1.0,0.0,0.0,0.0,1.0,0.0,0.0,0.0,1.0,0
1489585251367755168,487,1489585251365147620,,0,0,46.5183410645,6.56694364548,2.77602830977e-40,1.0,0.0,0.0,0.0,1.0,0.0,0.0,0.0,1.0,0
1489585251468231786,488,1489585251465242103,,0,0,46.5183410645,6.56694126129,2.77602830977e-40,1.0,0.0,0.0,0.0,1.0,0.0,0.0,0.0,1.0,0
1489585251568363873,489,1489585251565153044,,0,0,46.5183410645,6.56694126129,2.77602830977e-40,1.0,0.0,0.0,0.0,1.0,0.0,0.0,0.0,1.0,0
1489585251668616897,490,1489585251665249402,,0,0,46.5183410645,6.56693887711,2.77602830977e-40,1.0,0.0,0.0,0.0,1.0,0.0,0.0,0.0,1.0,0
1489585251768381432,491,1489585251765148677,,0,0,46.5183410645,6.56693887711,2.77602830977e-40,1.0,0.0,0.0,0.0,1.0,0.0,0.0,0.0,1.0,0
1489585251867602114,492,1489585251865265816,,0,0,46.5183372498,6.56693553925,2.77602830977e-40,1.0,0.0,0.0,0.0,1.0,0.0,0.0,0.0,1.0,0
1489585251968696960,493,1489585251965137747,,0,0,46.5183372498,6.56693553925,2.77602830977e-40,1.0,0.0,0.0,0.0,1.0,0.0,0.0,0.0,1.0,0
1489585252068178579,494,1489585252065290823,,0,0,46.5183334351,6.56693267822,2.77602830977e-40,1.0,0.0,0.0,0.0,1.0,0.0,0.0,0.0,1.0,0
1489585252168155875,495,1489585252165135046,,0,0,46.5183334351,6.56693267822,2.77602830977e-40,1.0,0.0,0.0,0.0,1.0,0.0,0.0,0.0,1.0,0
1489585252268082805,496,1489585252265274685,,0,0,46.5183334351,6.5669298172,2.77602830977e-40,1.0,0.0,0.0,0.0,1.0,0.0,0.0,0.0,1.0,0
1489585252367574581,497,1489585252365134845,,0,0,46.5183334351,6.5669298172,2.77602830977e-40,1.0,0.0,0.0,0.0,1.0,0.0,0.0,0.0,1.0,0
1489585252468165781,498,1489585252465272140,,0,0,46.5183296204,6.56692695618,2.77602830977e-40,1.0,0.0,0.0,0.0,1.0,0.0,0.0,0.0,1.0,0
1489585252569377346,499,1489585252565148706,,0,0,46.5183296204,6.56692695618,2.77602830977e-40,1.0,0.0,0.0,0.0,1.0,0.0,0.0,0.0,1.0,0
1489585252668282820,500,1489585252665270220,,0,0,46.5183296204,6.56692361832,2.77602830977e-40,1.0,0.0,0.0,0.0,1.0,0.0,0.0,0.0,1.0,0
1489585252767724075,501,1489585252765137412,,0,0,46.5183296204,6.56692361832,2.77602830977e-40,1.0,0.0,0.0,0.0,1.0,0.0,0.0,0.0,1.0,0
1489585252867356735,502,1489585252865253249,,0,0,46.5183296204,6.56691980362,2.77602830977e-40,1.0,0.0,0.0,0.0,1.0,0.0,0.0,0.0,1.0,0
1489585252968392466,503,1489585252965239502,,0,0,46.5183296204,6.56691980362,2.77602830977e-40,1.0,0.0,0.0,0.0,1.0,0.0,0.0,0.0,1.0,0
1489585253068316845,504,1489585253065255392,,0,0,46.5183258057,6.56691646576,2.77602830977e-40,1.0,0.0,0.0,0.0,1.0,0.0,0.0,0.0,1.0,0
1489585253168163880,505,1489585253165138260,,0,0,46.5183258057,6.56691646576,2.77602830977e-40,1.0,0.0,0.0,0.0,1.0,0.0,0.0,0.0,1.0,0
1489585253267810916,506,1489585253265257170,,0,0,46.5183258057,6.5669131279,2.77602830977e-40,1.0,0.0,0.0,0.0,1.0,0.0,0.0,0.0,1.0,0
1489585253367833211,507,1489585253365150715,,0,0,46.5183258057,6.5669131279,2.77602830977e-40,1.0,0.0,0.0,0.0,1.0,0.0,0.0,0.0,1.0,0
1489585253467784569,508,1489585253465231031,,0,0,46.5183258057,6.5669093132,2.77602830977e-40,1.0,0.0,0.0,0.0,1.0,0.0,0.0,0.0,1.0,0
1489585253568044104,509,1489585253565218171,,0,0,46.5183258057,6.5669093132,2.77602830977e-40,1.0,0.0,0.0,0.0,1.0,0.0,0.0,0.0,1.0,0
1489585253667932597,510,1489585253665241299,,0,0,46.518321991,6.56690788269,2.77602830977e-40,1.0,0.0,0.0,0.0,1.0,0.0,0.0,0.0,1.0,0
1489585253769259734,511,1489585253765275001,,0,0,46.518321991,6.56690788269,2.77602830977e-40,1.0,0.0,0.0,0.0,1.0,0.0,0.0,0.0,1.0,0
1489585253869012134,512,1489585253865249744,,0,0,46.5183258057,6.56690788269,2.77602830977e-40,1.0,0.0,0.0,0.0,1.0,0.0,0.0,0.0,1.0,0
1489585253967520057,513,1489585253965141936,,0,0,46.5183258057,6.56690788269,2.77602830977e-40,1.0,0.0,0.0,0.0,1.0,0.0,0.0,0.0,1.0,0
1489585254068184435,514,1489585254065881626,,0,0,46.518321991,6.56690216064,2.77602830977e-40,1.0,0.0,0.0,0.0,1.0,0.0,0.0,0.0,1.0,0
1489585254167386887,515,1489585254165148089,,0,0,46.518321991,6.56690216064,2.77602830977e-40,1.0,0.0,0.0,0.0,1.0,0.0,0.0,0.0,1.0,0
1489585254268031421,516,1489585254265242936,,0,0,46.518321991,6.56690168381,2.77602830977e-40,1.0,0.0,0.0,0.0,1.0,0.0,0.0,0.0,1.0,0
1489585254367427989,517,1489585254365149138,,0,0,46.518321991,6.56690168381,2.77602830977e-40,1.0,0.0,0.0,0.0,1.0,0.0,0.0,0.0,1.0,0
1489585254467485180,518,1489585254465253881,,0,0,46.518321991,6.56689977646,2.77602830977e-40,1.0,0.0,0.0,0.0,1.0,0.0,0.0,0.0,1.0,0
1489585254568383255,519,1489585254565142687,,0,0,46.518321991,6.56689977646,2.77602830977e-40,1.0,0.0,0.0,0.0,1.0,0.0,0.0,0.0,1.0,0
1489585254667633468,520,1489585254665243159,,0,0,46.518321991,6.56689786911,2.77602830977e-40,1.0,0.0,0.0,0.0,1.0,0.0,0.0,0.0,1.0,0
1489585254767461389,521,1489585254765133684,,0,0,46.518321991,6.56689786911,2.77602830977e-40,1.0,0.0,0.0,0.0,1.0,0.0,0.0,0.0,1.0,0
1489585254867596913,522,1489585254865244573,,0,0,46.5183143616,6.56688928604,2.77602830977e-40,1.0,0.0,0.0,0.0,1.0,0.0,0.0,0.0,1.0,0
1489585254967165928,523,1489585254965139004,,0,0,46.5183143616,6.56688928604,2.77602830977e-40,1.0,0.0,0.0,0.0,1.0,0.0,0.0,0.0,1.0,0
1489585255067939524,524,1489585255065243122,,0,0,46.5183105469,6.56688117981,2.77602830977e-40,1.0,0.0,0.0,0.0,1.0,0.0,0.0,0.0,1.0,0
1489585255167939007,525,1489585255165144897,,0,0,46.5183105469,6.56688117981,2.77602830977e-40,1.0,0.0,0.0,0.0,1.0,0.0,0.0,0.0,1.0,0
1489585255267871407,526,1489585255265270161,,0,0,46.5183105469,6.56687831879,2.77602830977e-40,1.0,0.0,0.0,0.0,1.0,0.0,0.0,0.0,1.0,0
1489585255367666098,527,1489585255365146571,,0,0,46.5183105469,6.56687831879,2.77602830977e-40,1.0,0.0,0.0,0.0,1.0,0.0,0.0,0.0,1.0,0
1489585255467971935,528,1489585255465253397,,0,0,46.5183181763,6.56688165665,2.77602830977e-40,1.0,0.0,0.0,0.0,1.0,0.0,0.0,0.0,1.0,0
1489585255567960584,529,1489585255565150693,,0,0,46.5183181763,6.56688165665,2.77602830977e-40,1.0,0.0,0.0,0.0,1.0,0.0,0.0,0.0,1.0,0
1489585255668397514,530,1489585255665260801,,0,0,46.5183181763,6.56687879562,2.77602830977e-40,1.0,0.0,0.0,0.0,1.0,0.0,0.0,0.0,1.0,0
1489585255768468351,531,1489585255765133357,,0,0,46.5183181763,6.56687879562,2.77602830977e-40,1.0,0.0,0.0,0.0,1.0,0.0,0.0,0.0,1.0,0
1489585255868338251,532,1489585255865257318,,0,0,46.5183258057,6.56688547134,2.77602830977e-40,1.0,0.0,0.0,0.0,1.0,0.0,0.0,0.0,1.0,0
1489585255968288411,533,1489585255965132426,,0,0,46.5183258057,6.56688547134,2.77602830977e-40,1.0,0.0,0.0,0.0,1.0,0.0,0.0,0.0,1.0,0
1489585256068377477,534,1489585256065239774,,0,0,46.518321991,6.5668797493,2.77602830977e-40,1.0,0.0,0.0,0.0,1.0,0.0,0.0,0.0,1.0,0
1489585256169226698,535,1489585256165142173,,0,0,46.518321991,6.5668797493,2.77602830977e-40,1.0,0.0,0.0,0.0,1.0,0.0,0.0,0.0,1.0,0
1489585256268414255,536,1489585256265248114,,0,0,46.5183181763,6.56687688828,2.77602830977e-40,1.0,0.0,0.0,0.0,1.0,0.0,0.0,0.0,1.0,0
1489585256368241759,537,1489585256365128066,,0,0,46.5183181763,6.56687688828,2.77602830977e-40,1.0,0.0,0.0,0.0,1.0,0.0,0.0,0.0,1.0,0
1489585256468042232,538,1489585256465271507,,0,0,46.518321991,6.56687784195,2.77602830977e-40,1.0,0.0,0.0,0.0,1.0,0.0,0.0,0.0,1.0,0
1489585256568377965,539,1489585256565146251,,0,0,46.518321991,6.56687784195,2.77602830977e-40,1.0,0.0,0.0,0.0,1.0,0.0,0.0,0.0,1.0,0
1489585256667947761,540,1489585256665251098,,0,0,46.5183181763,6.56687068939,2.77602830977e-40,1.0,0.0,0.0,0.0,1.0,0.0,0.0,0.0,1.0,0
1489585256767877504,541,1489585256765133602,,0,0,46.5183181763,6.56687068939,2.77602830977e-40,1.0,0.0,0.0,0.0,1.0,0.0,0.0,0.0,1.0,0
1489585256867628914,542,1489585256865294960,,0,0,46.5183143616,6.56686353683,2.77602830977e-40,1.0,0.0,0.0,0.0,1.0,0.0,0.0,0.0,1.0,0
1489585256971183131,543,1489585256967310637,,0,0,46.5183143616,6.56686353683,2.77602830977e-40,1.0,0.0,0.0,0.0,1.0,0.0,0.0,0.0,1.0,0
1489585257072249592,544,1489585257065248509,,0,0,46.5183105469,6.56685781479,2.77602830977e-40,1.0,0.0,0.0,0.0,1.0,0.0,0.0,0.0,1.0,0
1489585257168203143,545,1489585257165146586,,0,0,46.5183105469,6.56685781479,2.77602830977e-40,1.0,0.0,0.0,0.0,1.0,0.0,0.0,0.0,1.0,0
1489585257268693928,546,1489585257265252214,,0,0,46.5183067322,6.56684970856,2.77602830977e-40,1.0,0.0,0.0,0.0,1.0,0.0,0.0,0.0,1.0,0
1489585257369292003,547,1489585257365146541,,0,0,46.5183067322,6.56684970856,2.77602830977e-40,1.0,0.0,0.0,0.0,1.0,0.0,0.0,0.0,1.0,0
1489585257469518934,548,1489585257465241753,,0,0,46.5182991028,6.56683588028,2.77602830977e-40,1.0,0.0,0.0,0.0,1.0,0.0,0.0,0.0,1.0,0
1489585257568248210,549,1489585257565145819,,0,0,46.5182991028,6.56683588028,2.77602830977e-40,1.0,0.0,0.0,0.0,1.0,0.0,0.0,0.0,1.0,0
1489585257668717588,550,1489585257665251916,,0,0,46.5183029175,6.56683635712,2.77602830977e-40,1.0,0.0,0.0,0.0,1.0,0.0,0.0,0.0,1.0,0
1489585257768750821,551,1489585257765150827,,0,0,46.5183029175,6.56683635712,2.77602830977e-40,1.0,0.0,0.0,0.0,1.0,0.0,0.0,0.0,1.0,0
1489585257870171916,552,1489585257865237184,,0,0,46.5183029175,6.56683444977,2.77602830977e-40,1.0,0.0,0.0,0.0,1.0,0.0,0.0,0.0,1.0,0
1489585257968262860,553,1489585257965147969,,0,0,46.5183029175,6.56683444977,2.77602830977e-40,1.0,0.0,0.0,0.0,1.0,0.0,0.0,0.0,1.0,0
1489585258068475989,554,1489585258065243910,,0,0,46.5183029175,6.56682920456,2.77602830977e-40,1.0,0.0,0.0,0.0,1.0,0.0,0.0,0.0,1.0,0
1489585258168096566,555,1489585258165144175,,0,0,46.5183029175,6.56682920456,2.77602830977e-40,1.0,0.0,0.0,0.0,1.0,0.0,0.0,0.0,1.0,0
