%time,field.header.seq,field.header.stamp,field.header.frame_id,field.status.status,field.status.service,field.latitude,field.longitude,field.altitude,field.position_covariance0,field.position_covariance1,field.position_covariance2,field.position_covariance3,field.position_covariance4,field.position_covariance5,field.position_covariance6,field.position_covariance7,field.position_covariance8,field.position_covariance_type
1489584497066150242,99,1489584497063732381,,0,0,46.5184059143,6.56668424606,2.77602830977e-40,1.0,0.0,0.0,0.0,1.0,0.0,0.0,0.0,1.0,0
1489584497176127470,100,1489584497173356173,,0,0,46.5184135437,6.56665945053,2.77602830977e-40,1.0,0.0,0.0,0.0,1.0,0.0,0.0,0.0,1.0,0
1489584497265550147,101,1489584497263748431,,0,0,46.5184135437,6.56665945053,2.77602830977e-40,1.0,0.0,0.0,0.0,1.0,0.0,0.0,0.0,1.0,0
1489584497370509986,102,1489584497368420875,,0,0,46.5184631348,6.56662273407,2.77602830977e-40,1.0,0.0,0.0,0.0,1.0,0.0,0.0,0.0,1.0,0
1489584497466317028,103,1489584497463744740,,0,0,46.5184631348,6.56662273407,2.77602830977e-40,1.0,0.0,0.0,0.0,1.0,0.0,0.0,0.0,1.0,0
1489584497567608280,104,1489584497564802242,,0,0,46.518497467,6.56661462784,2.77602830977e-40,1.0,0.0,0.0,0.0,1.0,0.0,0.0,0.0,1.0,0
1489584497666540056,105,1489584497663803029,,0,0,46.518497467,6.56661462784,2.77602830977e-40,1.0,0.0,0.0,0.0,1.0,0.0,0.0,0.0,1.0,0
1489584497777550511,106,1489584497771769791,,0,0,46.5185203552,6.56661367416,2.77602830977e-40,1.0,0.0,0.0,0.0,1.0,0.0,0.0,0.0,1.0,0
1489584497866325428,107,1489584497863732724,,0,0,46.5185203552,6.56661367416,2.77602830977e-40,1.0,0.0,0.0,0.0,1.0,0.0,0.0,0.0,1.0,0
1489584497972132558,108,1489584497969246886,,0,0,46.5185432434,6.56659412384,2.77602830977e-40,1.0,0.0,0.0,0.0,1.0,0.0,0.0,0.0,1.0,0
1489584498066630175,109,1489584498063749866,,0,0,46.5185432434,6.56659412384,2.77602830977e-40,1.0,0.0,0.0,0.0,1.0,0.0,0.0,0.0,1.0,0
1489584498167434552,110,1489584498164600650,,0,0,46.5185546875,6.5665845871,2.77602830977e-40,1.0,0.0,0.0,0.0,1.0,0.0,0.0,0.0,1.0,0
1489584498265773985,111,1489584498263728311,,0,0,46.5185546875,6.5665845871,2.77602830977e-40,1.0,0.0,0.0,0.0,1.0,0.0,0.0,0.0,1.0,0
1489584498402912578,112,1489584498400531228,,0,0,46.5185699463,6.56659221649,2.77602830977e-40,1.0,0.0,0.0,0.0,1.0,0.0,0.0,0.0,1.0,0
1489584498466173940,113,1489584498463749569,,0,0,46.5185699463,6.56659221649,2.77602830977e-40,1.0,0.0,0.0,0.0,1.0,0.0,0.0,0.0,1.0,0
1489584498576363512,114,1489584498574087578,,0,0,46.5185699463,6.56659650803,2.77602830977e-40,1.0,0.0,0.0,0.0,1.0,0.0,0.0,0.0,1.0,0
1489584498667480977,115,1489584498663821034,,0,0,46.5185699463,6.56659650803,2.77602830977e-40,1.0,0.0,0.0,0.0,1.0,0.0,0.0,0.0,1.0,0
1489584498770311653,116,1489584498767872647,,0,0,46.5185699463,6.56660270691,2.77602830977e-40,1.0,0.0,0.0,0.0,1.0,0.0,0.0,0.0,1.0,0
1489584498865906612,117,1489584498863735365,,0,0,46.5185699463,6.56660270691,2.77602830977e-40,1.0,0.0,0.0,0.0,1.0,0.0,0.0,0.0,1.0,0
1489584498966979114,118,1489584498963776983,,0,0,46.5185661316,6.56660175323,2.77602830977e-40,1.0,0.0,0.0,0.0,1.0,0.0,0.0,0.0,1.0,0
1489584499067301200,119,1489584499063741622,,0,0,46.5185661316,6.56660175323,2.77602830977e-40,1.0,0.0,0.0,0.0,1.0,0.0,0.0,0.0,1.0,0
1489584500567766099,120,1489584500563890480,,0,0,46.5184745789,6.56664466858,2.77602830977e-40,1.0,0.0,0.0,0.0,1.0,0.0,0.0,0.0,1.0,0
1489584500567845682,121,1489584500564489698,,0,0,46.5184745789,6.56664466858,2.77602830977e-40,1.0,0.0,0.0,0.0,1.0,0.0,0.0,0.0,1.0,0
1489584500761540699,122,1489584500758925026,,0,0,46.5184745789,6.56664228439,2.77602830977e-40,1.0,0.0,0.0,0.0,1.0,0.0,0.0,0.0,1.0,0
1489584500768391001,123,1489584500764570955,,0,0,46.5184745789,6.56664228439,2.77602830977e-40,1.0,0.0,0.0,0.0,1.0,0.0,0.0,0.0,1.0,0
1489584500970430172,124,1489584500967091844,,0,0,46.5184326172,6.56662797928,2.77602830977e-40,1.0,0.0,0.0,0.0,1.0,0.0,0.0,0.0,1.0,0
1489584500970511787,125,1489584500967710176,,0,0,46.5184326172,6.56662797928,2.77602830977e-40,1.0,0.0,0.0,0.0,1.0,0.0,0.0,0.0,1.0,0
1489584501178254647,126,1489584501173921268,,0,0,46.5184326172,6.56663227081,2.77602830977e-40,1.0,0.0,0.0,0.0,1.0,0.0,0.0,0.0,1.0,0
1489584501178334438,127,1489584501174686163,,0,0,46.5184326172,6.56663227081,2.77602830977e-40,1.0,0.0,0.0,0.0,1.0,0.0,0.0,0.0,1.0,0
1489584501384422822,128,1489584501379775225,,0,0,46.518447876,6.566634655,2.77602830977e-40,1.0,0.0,0.0,0.0,1.0,0.0,0.0,0.0,1.0,0
1489584501384795426,129,1489584501380347099,,0,0,46.518447876,6.566634655,2.77602830977e-40,1.0,0.0,0.0,0.0,1.0,0.0,0.0,0.0,1.0,0
1489584501579244608,130,1489584501575004563,,0,0,46.5184593201,6.56665802002,2.77602830977e-40,1.0,0.0,0.0,0.0,1.0,0.0,0.0,0.0,1.0,0
1489584501580434450,131,1489584501576154977,,0,0,46.5184593201,6.56665802002,2.77602830977e-40,1.0,0.0,0.0,0.0,1.0,0.0,0.0,0.0,1.0,0
1489584501751239033,132,1489584501748618204,,0,0,46.518447876,6.56665658951,2.77602830977e-40,1.0,0.0,0.0,0.0,1.0,0.0,0.0,0.0,1.0,0
1489584501767405727,133,1489584501764611357,,0,0,46.518447876,6.56665658951,2.77602830977e-40,1.0,0.0,0.0,0.0,1.0,0.0,0.0,0.0,1.0,0
1489584502587223956,134,1489584502583826045,,0,0,46.5185165405,6.56661558151,2.77602830977e-40,1.0,0.0,0.0,0.0,1.0,0.0,0.0,0.0,1.0,0
1489584502587326039,135,1489584502584484377,,0,0,46.5185165405,6.56661558151,2.77602830977e-40,1.0,0.0,0.0,0.0,1.0,0.0,0.0,0.0,1.0,0
1489584502796217075,136,1489584502790527344,,0,0,46.5184783936,6.56663656235,2.77602830977e-40,1.0,0.0,0.0,0.0,1.0,0.0,0.0,0.0,1.0,0
1489584502797204157,137,1489584502791121822,,0,0,46.5184783936,6.56663656235,2.77602830977e-40,1.0,0.0,0.0,0.0,1.0,0.0,0.0,0.0,1.0,0
1489584502990679122,138,1489584502986094077,,0,0,46.5184745789,6.56661272049,2.77602830977e-40,1.0,0.0,0.0,0.0,1.0,0.0,0.0,0.0,1.0,0
1489584502990764955,139,1489584502986710690,,0,0,46.5184745789,6.56661272049,2.77602830977e-40,1.0,0.0,0.0,0.0,1.0,0.0,0.0,0.0,1.0,0
1489584503165779219,140,1489584503163345213,,0,0,46.5184822083,6.56661701202,2.77602830977e-40,1.0,0.0,0.0,0.0,1.0,0.0,0.0,0.0,1.0,0
1489584503189701787,141,1489584503184661378,,0,0,46.5184822083,6.56661701202,2.77602830977e-40,1.0,0.0,0.0,0.0,1.0,0.0,0.0,0.0,1.0,0
1489584503421599194,142,1489584503415879150,,0,0,46.5184669495,6.56664180756,2.77602830977e-40,1.0,0.0,0.0,0.0,1.0,0.0,0.0,0.0,1.0,0
1489584503421921224,143,1489584503417904147,,0,0,46.5184669495,6.56664180756,2.77602830977e-40,1.0,0.0,0.0,0.0,1.0,0.0,0.0,0.0,1.0,0
1489584503581119784,144,1489584503578537756,,0,0,46.5184669495,6.56663942337,2.77602830977e-40,1.0,0.0,0.0,0.0,1.0,0.0,0.0,0.0,1.0,0
1489584503587123577,145,1489584503584618268,,0,0,46.5184669495,6.56663942337,2.77602830977e-40,1.0,0.0,0.0,0.0,1.0,0.0,0.0,0.0,1.0,0
1489584503775885060,146,1489584503772543502,,0,0,46.5184822083,6.56664896011,2.77602830977e-40,1.0,0.0,0.0,0.0,1.0,0.0,0.0,0.0,1.0,0
1489584503787218167,147,1489584503784614734,,0,0,46.5184822083,6.56664896011,2.77602830977e-40,1.0,0.0,0.0,0.0,1.0,0.0,0.0,0.0,1.0,0
1489584503969416379,148,1489584503966652425,,0,0,46.5185012817,6.5666384697,2.77602830977e-40,1.0,0.0,0.0,0.0,1.0,0.0,0.0,0.0,1.0,0
1489584503987268956,149,1489584503984612293,,0,0,46.5185012817,6.5666384697,2.77602830977e-40,1.0,0.0,0.0,0.0,1.0,0.0,0.0,0.0,1.0,0
1489584504172490496,150,1489584504169740865,,0,0,46.5184822083,6.56661605835,2.77602830977e-40,1.0,0.0,0.0,0.0,1.0,0.0,0.0,0.0,1.0,0
1489584504187656775,151,1489584504184595530,,0,0,46.5184822083,6.56661605835,2.77602830977e-40,1.0,0.0,0.0,0.0,1.0,0.0,0.0,0.0,1.0,0
1489584504369629675,152,1489584504367095772,,0,0,46.518497467,6.56663656235,2.77602830977e-40,1.0,0.0,0.0,0.0,1.0,0.0,0.0,0.0,1.0,0
1489584504386830482,153,1489584504384599287,,0,0,46.518497467,6.56663656235,2.77602830977e-40,1.0,0.0,0.0,0.0,1.0,0.0,0.0,0.0,1.0,0
1489584504552759343,154,1489584504550186639,,0,0,46.5185050964,6.56666183472,2.77602830977e-40,1.0,0.0,0.0,0.0,1.0,0.0,0.0,0.0,1.0,0
1489584504587102416,155,1489584504584576066,,0,0,46.5185050964,6.56666183472,2.77602830977e-40,1.0,0.0,0.0,0.0,1.0,0.0,0.0,0.0,1.0,0
1489584504686877316,156,1489584504684742319,,0,0,46.5184898376,6.56664991379,2.77602830977e-40,1.0,0.0,0.0,0.0,1.0,0.0,0.0,0.0,1.0,0
1489584504787574923,157,1489584504784592531,,0,0,46.5184898376,6.56664991379,2.77602830977e-40,1.0,0.0,0.0,0.0,1.0,0.0,0.0,0.0,1.0,0
1489584504887105135,158,1489584504884662379,,0,0,46.5184516907,6.56664991379,2.77602830977e-40,1.0,0.0,0.0,0.0,1.0,0.0,0.0,0.0,1.0,0
1489584504987027431,159,1489584504984610664,,0,0,46.5184516907,6.56664991379,2.77602830977e-40,1.0,0.0,0.0,0.0,1.0,0.0,0.0,0.0,1.0,0
1489584505088346651,160,1489584505084681657,,0,0,46.5184631348,6.5666437149,2.77602830977e-40,1.0,0.0,0.0,0.0,1.0,0.0,0.0,0.0,1.0,0
1489584505187335667,161,1489584505184614057,,0,0,46.5184631348,6.5666437149,2.77602830977e-40,1.0,0.0,0.0,0.0,1.0,0.0,0.0,0.0,1.0,0
1489584505287142286,162,1489584505284673071,,0,0,46.5184783936,6.56663942337,2.77602830977e-40,1.0,0.0,0.0,0.0,1.0,0.0,0.0,0.0,1.0,0
1489584505387217185,163,1489584505384609741,,0,0,46.5184783936,6.56663942337,2.77602830977e-40,1.0,0.0,0.0,0.0,1.0,0.0,0.0,0.0,1.0,0
1489584505486911877,164,1489584505484671880,,0,0,46.5184745789,6.56664419174,2.77602830977e-40,1.0,0.0,0.0,0.0,1.0,0.0,0.0,0.0,1.0,0
1489584505586800058,165,1489584505584609228,,0,0,46.5184745789,6.56664419174,2.77602830977e-40,1.0,0.0,0.0,0.0,1.0,0.0,0.0,0.0,1.0,0
1489584505686900738,166,1489584505684659388,,0,0,46.5184898376,6.56662607193,2.77602830977e-40,1.0,0.0,0.0,0.0,1.0,0.0,0.0,0.0,1.0,0
1489584505786844492,167,1489584505784596006,,0,0,46.5184898376,6.56662607193,2.77602830977e-40,1.0,0.0,0.0,0.0,1.0,0.0,0.0,0.0,1.0,0
1489584505890758136,168,1489584505884672989,,0,0,46.5184745789,6.5666384697,2.77602830977e-40,1.0,0.0,0.0,0.0,1.0,0.0,0.0,0.0,1.0,0
1489584505988499601,169,1489584505984603045,,0,0,46.5184745789,6.5666384697,2.77602830977e-40,1.0,0.0,0.0,0.0,1.0,0.0,0.0,0.0,1.0,0
1489584506087705648,170,1489584506084672996,,0,0,46.5184745789,6.56663560867,2.77602830977e-40,1.0,0.0,0.0,0.0,1.0,0.0,0.0,0.0,1.0,0
1489584506187717110,171,1489584506184611646,,0,0,46.5184745789,6.56663560867,2.77602830977e-40,1.0,0.0,0.0,0.0,1.0,0.0,0.0,0.0,1.0,0
1489584506288440081,172,1489584506284917691,,0,0,46.5184745789,6.5666308403,2.77602830977e-40,1.0,0.0,0.0,0.0,1.0,0.0,0.0,0.0,1.0,0
1489584506387251024,173,1489584506384608528,,0,0,46.5184745789,6.5666308403,2.77602830977e-40,1.0,0.0,0.0,0.0,1.0,0.0,0.0,0.0,1.0,0
1489584506488368787,174,1489584506484720719,,0,0,46.5184783936,6.56662559509,2.77602830977e-40,1.0,0.0,0.0,0.0,1.0,0.0,0.0,0.0,1.0,0
1489584506588391134,175,1489584506584603015,,0,0,46.5184783936,6.56662559509,2.77602830977e-40,1.0,0.0,0.0,0.0,1.0,0.0,0.0,0.0,1.0,0
1489584506687790045,176,1489584506684740675,,0,0,46.5184822083,6.5666384697,2.77602830977e-40,1.0,0.0,0.0,0.0,1.0,0.0,0.0,0.0,1.0,0
1489584506787203852,177,1489584506784611616,,0,0,46.5184822083,6.5666384697,2.77602830977e-40,1.0,0.0,0.0,0.0,1.0,0.0,0.0,0.0,1.0,0
1489584506886890314,178,1489584506884667870,,0,0,46.5184822083,6.56663942337,2.77602830977e-40,1.0,0.0,0.0,0.0,1.0,0.0,0.0,0.0,1.0,0
1489584506989041669,179,1489584506984610061,,0,0,46.5184822083,6.56663942337,2.77602830977e-40,1.0,0.0,0.0,0.0,1.0,0.0,0.0,0.0,1.0,0
1489584507086858603,180,1489584507084680064,,0,0,46.5184745789,6.56663370132,2.77602830977e-40,1.0,0.0,0.0,0.0,1.0,0.0,0.0,0.0,1.0,0
1489584507188114021,181,1489584507184608610,,0,0,46.5184745789,6.56663370132,2.77602830977e-40,1.0,0.0,0.0,0.0,1.0,0.0,0.0,0.0,1.0,0
1489584507309595607,182,1489584507305579571,,0,0,46.5184783936,6.56662416458,2.77602830977e-40,1.0,0.0,0.0,0.0,1.0,0.0,0.0,0.0,1.0,0
1489584507387305228,183,1489584507384603617,,0,0,46.5184783936,6.56662416458,2.77602830977e-40,1.0,0.0,0.0,0.0,1.0,0.0,0.0,0.0,1.0,0
1489584507487708408,184,1489584507484658777,,0,0,46.5184822083,6.56663036346,2.77602830977e-40,1.0,0.0,0.0,0.0,1.0,0.0,0.0,0.0,1.0,0
1489584507587818307,185,1489584507584597479,,0,0,46.5184822083,6.56663036346,2.77602830977e-40,1.0,0.0,0.0,0.0,1.0,0.0,0.0,0.0,1.0,0
1489584507688444508,186,1489584507684669618,,0,0,46.5184898376,6.56662988663,2.77602830977e-40,1.0,0.0,0.0,0.0,1.0,0.0,0.0,0.0,1.0,0
1489584507787870242,187,1489584507784603893,,0,0,46.5184898376,6.56662988663,2.77602830977e-40,1.0,0.0,0.0,0.0,1.0,0.0,0.0,0.0,1.0,0
1489584507887428111,188,1489584507884668844,,0,0,46.5184822083,6.56662511826,2.77602830977e-40,1.0,0.0,0.0,0.0,1.0,0.0,0.0,0.0,1.0,0
1489584507987408219,189,1489584507984604421,,0,0,46.5184822083,6.56662511826,2.77602830977e-40,1.0,0.0,0.0,0.0,1.0,0.0,0.0,0.0,1.0,0
1489584508086775255,190,1489584508084661768,,0,0,46.5184822083,6.56663560867,2.77602830977e-40,1.0,0.0,0.0,0.0,1.0,0.0,0.0,0.0,1.0,0
1489584508187154112,191,1489584508184602033,,0,0,46.5184822083,6.56663560867,2.77602830977e-40,1.0,0.0,0.0,0.0,1.0,0.0,0.0,0.0,1.0,0
1489584508286984637,192,1489584508284670630,,0,0,46.5184822083,6.56663513184,2.77602830977e-40,1.0,0.0,0.0,0.0,1.0,0.0,0.0,0.0,1.0,0
1489584508387666150,193,1489584508384602977,,0,0,46.5184822083,6.56663513184,2.77602830977e-40,1.0,0.0,0.0,0.0,1.0,0.0,0.0,0.0,1.0,0
1489584508505322325,194,1489584508502296235,,0,0,46.5184898376,6.56663131714,2.77602830977e-40,1.0,0.0,0.0,0.0,1.0,0.0,0.0,0.0,1.0,0
1489584508587568032,195,1489584508584598141,,0,0,46.5184898376,6.56663131714,2.77602830977e-40,1.0,0.0,0.0,0.0,1.0,0.0,0.0,0.0,1.0,0
1489584508687754182,196,1489584508684744603,,0,0,46.5184860229,6.56663751602,2.77602830977e-40,1.0,0.0,0.0,0.0,1.0,0.0,0.0,0.0,1.0,0
1489584508787594759,197,1489584508784608617,,0,0,46.5184860229,6.56663751602,2.77602830977e-40,1.0,0.0,0.0,0.0,1.0,0.0,0.0,0.0,1.0,0
1489584508887752054,198,1489584508884672996,,0,0,46.5184860229,6.56662607193,2.77602830977e-40,1.0,0.0,0.0,0.0,1.0,0.0,0.0,0.0,1.0,0
1489584508987348048,199,1489584508984597896,,0,0,46.5184860229,6.56662607193,2.77602830977e-40,1.0,0.0,0.0,0.0,1.0,0.0,0.0,0.0,1.0,0
1489584509087917425,200,1489584509084674514,,0,0,46.5184745789,6.56664657593,2.77602830977e-40,1.0,0.0,0.0,0.0,1.0,0.0,0.0,0.0,1.0,0
1489584509187563211,201,1489584509184618945,,0,0,46.5184745789,6.56664657593,2.77602830977e-40,1.0,0.0,0.0,0.0,1.0,0.0,0.0,0.0,1.0,0
1489584509288834515,202,1489584509284688063,,0,0,46.5184745789,6.56663894653,2.77602830977e-40,1.0,0.0,0.0,0.0,1.0,0.0,0.0,0.0,1.0,0
1489584509388151915,203,1489584509384605879,,0,0,46.5184745789,6.56663894653,2.77602830977e-40,1.0,0.0,0.0,0.0,1.0,0.0,0.0,0.0,1.0,0
1489584509487349837,204,1489584509484681508,,0,0,46.5184783936,6.56663799286,2.77602830977e-40,1.0,0.0,0.0,0.0,1.0,0.0,0.0,0.0,1.0,0
1489584509586905414,205,1489584509584611668,,0,0,46.5184783936,6.56663799286,2.77602830977e-40,1.0,0.0,0.0,0.0,1.0,0.0,0.0,0.0,1.0,0
1489584509687827031,206,1489584509684679536,,0,0,46.5184822083,6.56663990021,2.77602830977e-40,1.0,0.0,0.0,0.0,1.0,0.0,0.0,0.0,1.0,0
1489584509787092869,207,1489584509784604071,,0,0,46.5184822083,6.56663990021,2.77602830977e-40,1.0,0.0,0.0,0.0,1.0,0.0,0.0,0.0,1.0,0
1489584509886811884,208,1489584509884675273,,0,0,46.5184860229,6.56664180756,2.77602830977e-40,1.0,0.0,0.0,0.0,1.0,0.0,0.0,0.0,1.0,0
1489584509986971835,209,1489584509984598870,,0,0,46.5184860229,6.56664180756,2.77602830977e-40,1.0,0.0,0.0,0.0,1.0,0.0,0.0,0.0,1.0,0
1489584510087052985,210,1489584510084666530,,0,0,46.5184783936,6.56664657593,2.77602830977e-40,1.0,0.0,0.0,0.0,1.0,0.0,0.0,0.0,1.0,0
1489584510187008613,211,1489584510184617419,,0,0,46.5184783936,6.56664657593,2.77602830977e-40,1.0,0.0,0.0,0.0,1.0,0.0,0.0,0.0,1.0,0
1489584510290748403,212,1489584510287047575,,0,0,46.5184745789,6.56664514542,2.77602830977e-40,1.0,0.0,0.0,0.0,1.0,0.0,0.0,0.0,1.0,0
1489584510388141223,213,1489584510384637531,,0,0,46.5184745789,6.56664514542,2.77602830977e-40,1.0,0.0,0.0,0.0,1.0,0.0,0.0,0.0,1.0,0
1489584510487764248,214,1489584510484670243,,0,0,46.5184783936,6.56664323807,2.77602830977e-40,1.0,0.0,0.0,0.0,1.0,0.0,0.0,0.0,1.0,0
1489584510586998733,215,1489584510584569517,,0,0,46.5184783936,6.56664323807,2.77602830977e-40,1.0,0.0,0.0,0.0,1.0,0.0,0.0,0.0,1.0,0
1489584510687032486,216,1489584510684672177,,0,0,46.5184783936,6.56664085388,2.77602830977e-40,1.0,0.0,0.0,0.0,1.0,0.0,0.0,0.0,1.0,0
1489584510787554104,217,1489584510784596504,,0,0,46.5184783936,6.56664085388,2.77602830977e-40,1.0,0.0,0.0,0.0,1.0,0.0,0.0,0.0,1.0,0
1489584510888619835,218,1489584510884675935,,0,0,46.5184745789,6.56664276123,2.77602830977e-40,1.0,0.0,0.0,0.0,1.0,0.0,0.0,0.0,1.0,0
1489584510986873018,219,1489584510984601199,,0,0,46.5184745789,6.56664276123,2.77602830977e-40,1.0,0.0,0.0,0.0,1.0,0.0,0.0,0.0,1.0,0
1489584511086981824,220,1489584511084673650,,0,0,46.5184822083,6.56663703918,2.77602830977e-40,1.0,0.0,0.0,0.0,1.0,0.0,0.0,0.0,1.0,0
1489584511186831047,221,1489584511184606831,,0,0,46.5184822083,6.56663703918,2.77602830977e-40,1.0,0.0,0.0,0.0,1.0,0.0,0.0,0.0,1.0,0
1489584511288470683,222,1489584511284666210,,0,0,46.5184860229,6.56663322449,2.77602830977e-40,1.0,0.0,0.0,0.0,1.0,0.0,0.0,0.0,1.0,0
1489584511387417407,223,1489584511384608401,,0,0,46.5184860229,6.56663322449,2.77602830977e-40,1.0,0.0,0.0,0.0,1.0,0.0,0.0,0.0,1.0,0
1489584511488435014,224,1489584511484675228,,0,0,46.518497467,6.56662225723,2.77602830977e-40,1.0,0.0,0.0,0.0,1.0,0.0,0.0,0.0,1.0,0
1489584511587638040,225,1489584511584607627,,0,0,46.518497467,6.56662225723,2.77602830977e-40,1.0,0.0,0.0,0.0,1.0,0.0,0.0,0.0,1.0,0
1489584511687265908,226,1489584511684679194,,0,0,46.5184936523,6.56662607193,2.77602830977e-40,1.0,0.0,0.0,0.0,1.0,0.0,0.0,0.0,1.0,0
1489584511789697106,227,1489584511784605812,,0,0,46.5184936523,6.56662607193,2.77602830977e-40,1.0,0.0,0.0,0.0,1.0,0.0,0.0,0.0,1.0,0
1489584511887400811,228,1489584511884673680,,0,0,46.5184936523,6.56662750244,2.77602830977e-40,1.0,0.0,0.0,0.0,1.0,0.0,0.0,0.0,1.0,0
1489584511987801648,229,1489584511984617486,,0,0,46.5184936523,6.56662750244,2.77602830977e-40,1.0,0.0,0.0,0.0,1.0,0.0,0.0,0.0,1.0,0
1489584512088234568,230,1489584512084665042,,0,0,46.5184783936,6.56663894653,2.77602830977e-40,1.0,0.0,0.0,0.0,1.0,0.0,0.0,0.0,1.0,0
1489584512187383739,231,1489584512184605983,,0,0,46.5184783936,6.56663894653,2.77602830977e-40,1.0,0.0,0.0,0.0,1.0,0.0,0.0,0.0,1.0,0
1489584512291213789,232,1489584512284665258,,0,0,46.5184745789,6.56663608551,2.77602830977e-40,1.0,0.0,0.0,0.0,1.0,0.0,0.0,0.0,1.0,0
1489584512387158851,233,1489584512384666563,,0,0,46.5184745789,6.56663608551,2.77602830977e-40,1.0,0.0,0.0,0.0,1.0,0.0,0.0,0.0,1.0,0
1489584512488928644,234,1489584512484712192,,0,0,46.5184783936,6.56664419174,2.77602830977e-40,1.0,0.0,0.0,0.0,1.0,0.0,0.0,0.0,1.0,0
1489584512587802243,235,1489584512584721050,,0,0,46.5184783936,6.56664419174,2.77602830977e-40,1.0,0.0,0.0,0.0,1.0,0.0,0.0,0.0,1.0,0
1489584512687767663,236,1489584512684788345,,0,0,46.5184783936,6.56663799286,2.77602830977e-40,1.0,0.0,0.0,0.0,1.0,0.0,0.0,0.0,1.0,0
1489584512789390581,237,1489584512784598870,,0,0,46.5184783936,6.56663799286,2.77602830977e-40,1.0,0.0,0.0,0.0,1.0,0.0,0.0,0.0,1.0,0
1489584512887488505,238,1489584512884671582,,0,0,46.5184822083,6.56663656235,2.77602830977e-40,1.0,0.0,0.0,0.0,1.0,0.0,0.0,0.0,1.0,0
1489584512988589757,239,1489584512984616325,,0,0,46.5184822083,6.56663656235,2.77602830977e-40,1.0,0.0,0.0,0.0,1.0,0.0,0.0,0.0,1.0,0
1489584513087084763,240,1489584513084676016,,0,0,46.5184822083,6.56663608551,2.77602830977e-40,1.0,0.0,0.0,0.0,1.0,0.0,0.0,0.0,1.0,0
1489584513186957735,241,1489584513184631228,,0,0,46.5184822083,6.56663608551,2.77602830977e-40,1.0,0.0,0.0,0.0,1.0,0.0,0.0,0.0,1.0,0
1489584513286866281,242,1489584513284664461,,0,0,46.5184822083,6.56663608551,2.77602830977e-40,1.0,0.0,0.0,0.0,1.0,0.0,0.0,0.0,1.0,0
1489584513387235190,243,1489584513384629882,,0,0,46.5184822083,6.56663608551,2.77602830977e-40,1.0,0.0,0.0,0.0,1.0,0.0,0.0,0.0,1.0,0
1489584513487245454,244,1489584513484672594,,0,0,46.5184822083,6.56663179398,2.77602830977e-40,1.0,0.0,0.0,0.0,1.0,0.0,0.0,0.0,1.0,0
1489584513586664521,245,1489584513584596191,,0,0,46.5184822083,6.56663179398,2.77602830977e-40,1.0,0.0,0.0,0.0,1.0,0.0,0.0,0.0,1.0,0
1489584513689049417,246,1489584513684663226,,0,0,46.5184860229,6.56663131714,2.77602830977e-40,1.0,0.0,0.0,0.0,1.0,0.0,0.0,0.0,1.0,0
1489584513788137808,247,1489584513784787917,,0,0,46.5184860229,6.56663131714,2.77602830977e-40,1.0,0.0,0.0,0.0,1.0,0.0,0.0,0.0,1.0,0
1489584513887738489,248,1489584513884665265,,0,0,46.5184936523,6.56662273407,2.77602830977e-40,1.0,0.0,0.0,0.0,1.0,0.0,0.0,0.0,1.0,0
1489584513987212504,249,1489584513984599279,,0,0,46.5184936523,6.56662273407,2.77602830977e-40,1.0,0.0,0.0,0.0,1.0,0.0,0.0,0.0,1.0,0
1489584514087306518,250,1489584514084665845,,0,0,46.5184860229,6.56663036346,2.77602830977e-40,1.0,0.0,0.0,0.0,1.0,0.0,0.0,0.0,1.0,0
1489584514187313189,251,1489584514184597932,,0,0,46.5184860229,6.56663036346,2.77602830977e-40,1.0,0.0,0.0,0.0,1.0,0.0,0.0,0.0,1.0,0
1489584514287326682,252,1489584514284667103,,0,0,46.5184860229,6.56663322449,2.77602830977e-40,1.0,0.0,0.0,0.0,1.0,0.0,0.0,0.0,1.0,0
1489584514387086426,253,1489584514384606325,,0,0,46.5184860229,6.56663322449,2.77602830977e-40,1.0,0.0,0.0,0.0,1.0,0.0,0.0,0.0,1.0,0
1489584514487051013,254,1489584514484658516,,0,0,46.5184860229,6.56663322449,2.77602830977e-40,1.0,0.0,0.0,0.0,1.0,0.0,0.0,0.0,1.0,0
1489584514587212058,255,1489584514584597895,,0,0,46.5184860229,6.56663322449,2.77602830977e-40,1.0,0.0,0.0,0.0,1.0,0.0,0.0,0.0,1.0,0
1489584514686747687,256,1489584514684655607,,0,0,46.5184860229,6.5666384697,2.77602830977e-40,1.0,0.0,0.0,0.0,1.0,0.0,0.0,0.0,1.0,0
1489584514787015347,257,1489584514784594205,,0,0,46.5184860229,6.5666384697,2.77602830977e-40,1.0,0.0,0.0,0.0,1.0,0.0,0.0,0.0,1.0,0
1489584514887187017,258,1489584514884658844,,0,0,46.5184822083,6.56664562225,2.77602830977e-40,1.0,0.0,0.0,0.0,1.0,0.0,0.0,0.0,1.0,0
1489584514987533426,259,1489584514984614472,,0,0,46.5184822083,6.56664562225,2.77602830977e-40,1.0,0.0,0.0,0.0,1.0,0.0,0.0,0.0,1.0,0
1489584515087280514,260,1489584515084658070,,0,0,46.5184822083,6.56664419174,2.77602830977e-40,1.0,0.0,0.0,0.0,1.0,0.0,0.0,0.0,1.0,0
1489584515187942079,261,1489584515184653282,,0,0,46.5184822083,6.56664419174,2.77602830977e-40,1.0,0.0,0.0,0.0,1.0,0.0,0.0,0.0,1.0,0
1489584515287603437,262,1489584515284660838,,0,0,46.5184822083,6.5666384697,2.77602830977e-40,1.0,0.0,0.0,0.0,1.0,0.0,0.0,0.0,1.0,0
1489584515387657035,263,1489584515384600164,,0,0,46.5184822083,6.5666384697,2.77602830977e-40,1.0,0.0,0.0,0.0,1.0,0.0,0.0,0.0,1.0,0
1489584515489473025,264,1489584515484741053,,0,0,46.5184783936,6.56664276123,2.77602830977e-40,1.0,0.0,0.0,0.0,1.0,0.0,0.0,0.0,1.0,0
1489584515588087771,265,1489584515584607672,,0,0,46.5184783936,6.56664276123,2.77602830977e-40,1.0,0.0,0.0,0.0,1.0,0.0,0.0,0.0,1.0,0
1489584515688081472,266,1489584515684660384,,0,0,46.5184783936,6.56664180756,2.77602830977e-40,1.0,0.0,0.0,0.0,1.0,0.0,0.0,0.0,1.0,0
1489584515787582831,267,1489584515784612888,,0,0,46.5184783936,6.56664180756,2.77602830977e-40,1.0,0.0,0.0,0.0,1.0,0.0,0.0,0.0,1.0,0
1489584515887500387,268,1489584515884727474,,0,0,46.5184745789,6.56663417816,2.77602830977e-40,1.0,0.0,0.0,0.0,1.0,0.0,0.0,0.0,1.0,0
1489584515987990442,269,1489584515984610082,,0,0,46.5184745789,6.56663417816,2.77602830977e-40,1.0,0.0,0.0,0.0,1.0,0.0,0.0,0.0,1.0,0
1489584516089382318,270,1489584516084669461,,0,0,46.5184745789,6.5666308403,2.77602830977e-40,1.0,0.0,0.0,0.0,1.0,0.0,0.0,0.0,1.0,0
1489584516187022847,271,1489584516184618423,,0,0,46.5184745789,6.5666308403,2.77602830977e-40,1.0,0.0,0.0,0.0,1.0,0.0,0.0,0.0,1.0,0
1489584516290769980,272,1489584516287943005,,0,0,46.5184822083,6.56662750244,2.77602830977e-40,1.0,0.0,0.0,0.0,1.0,0.0,0.0,0.0,1.0,0
1489584516387164885,273,1489584516384613899,,0,0,46.5184822083,6.56662750244,2.77602830977e-40,1.0,0.0,0.0,0.0,1.0,0.0,0.0,0.0,1.0,0
1489584516487184160,274,1489584516484660153,,0,0,46.5184822083,6.56662988663,2.77602830977e-40,1.0,0.0,0.0,0.0,1.0,0.0,0.0,0.0,1.0,0
1489584516587173538,275,1489584516584603334,,0,0,46.5184822083,6.56662988663,2.77602830977e-40,1.0,0.0,0.0,0.0,1.0,0.0,0.0,0.0,1.0,0
1489584516687087969,276,1489584516684739796,,0,0,46.5184822083,6.56663036346,2.77602830977e-40,1.0,0.0,0.0,0.0,1.0,0.0,0.0,0.0,1.0,0
1489584516787838336,277,1489584516784641258,,0,0,46.5184822083,6.56663036346,2.77602830977e-40,1.0,0.0,0.0,0.0,1.0,0.0,0.0,0.0,1.0,0
1489584516887756934,278,1489584516884676574,,0,0,46.5184860229,6.56663322449,2.77602830977e-40,1.0,0.0,0.0,0.0,1.0,0.0,0.0,0.0,1.0,0
1489584516987285688,279,1489584516984583245,,0,0,46.5184860229,6.56663322449,2.77602830977e-40,1.0,0.0,0.0,0.0,1.0,0.0,0.0,0.0,1.0,0
1489584517087830535,280,1489584517084669498,,0,0,46.5184898376,6.56663513184,2.77602830977e-40,1.0,0.0,0.0,0.0,1.0,0.0,0.0,0.0,1.0,0
1489584517187732778,281,1489584517184607627,,0,0,46.5184898376,6.56663513184,2.77602830977e-40,1.0,0.0,0.0,0.0,1.0,0.0,0.0,0.0,1.0,0
1489584517371311457,282,1489584517368338076,,0,0,46.5184860229,6.5666437149,2.77602830977e-40,1.0,0.0,0.0,0.0,1.0,0.0,0.0,0.0,1.0,0
1489584517387606015,283,1489584517384697478,,0,0,46.5184860229,6.5666437149,2.77602830977e-40,1.0,0.0,0.0,0.0,1.0,0.0,0.0,0.0,1.0,0
1489584517487082791,284,1489584517484671284,,0,0,46.5184860229,6.56664991379,2.77602830977e-40,1.0,0.0,0.0,0.0,1.0,0.0,0.0,0.0,1.0,0
1489584517587688366,285,1489584517584608059,,0,0,46.5184860229,6.56664991379,2.77602830977e-40,1.0,0.0,0.0,0.0,1.0,0.0,0.0,0.0,1.0,0
1489584517687750089,286,1489584517684677229,,0,0,46.5184822083,6.56665658951,2.77602830977e-40,1.0,0.0,0.0,0.0,1.0,0.0,0.0,0.0,1.0,0
1489584517787386551,287,1489584517784601608,,0,0,46.5184822083,6.56665658951,2.77602830977e-40,1.0,0.0,0.0,0.0,1.0,0.0,0.0,0.0,1.0,0
1489584517887789002,288,1489584517884658486,,0,0,46.5184822083,6.56664228439,2.77602830977e-40,1.0,0.0,0.0,0.0,1.0,0.0,0.0,0.0,1.0,0
1489584517987465204,289,1489584517984611928,,0,0,46.5184822083,6.56664228439,2.77602830977e-40,1.0,0.0,0.0,0.0,1.0,0.0,0.0,0.0,1.0,0
1489584518086592501,290,1489584518084672244,,0,0,46.5184860229,6.56663131714,2.77602830977e-40,1.0,0.0,0.0,0.0,1.0,0.0,0.0,0.0,1.0,0
1489584518189723281,291,1489584518184606883,,0,0,46.5184860229,6.56663131714,2.77602830977e-40,1.0,0.0,0.0,0.0,1.0,0.0,0.0,0.0,1.0,0
1489584518287808809,292,1489584518284674178,,0,0,46.5184822083,6.56662225723,2.77602830977e-40,1.0,0.0,0.0,0.0,1.0,0.0,0.0,0.0,1.0,0
1489584518387971937,293,1489584518384610744,,0,0,46.5184822083,6.56662225723,2.77602830977e-40,1.0,0.0,0.0,0.0,1.0,0.0,0.0,0.0,1.0,0
1489584518487634546,294,1489584518484675748,,0,0,46.5184860229,6.56662130356,2.77602830977e-40,1.0,0.0,0.0,0.0,1.0,0.0,0.0,0.0,1.0,0
1489584518587652622,295,1489584518584605856,,0,0,46.5184860229,6.56662130356,2.77602830977e-40,1.0,0.0,0.0,0.0,1.0,0.0,0.0,0.0,1.0,0
1489584518687659345,296,1489584518684671589,,0,0,46.5184822083,6.56662940979,2.77602830977e-40,1.0,0.0,0.0,0.0,1.0,0.0,0.0,0.0,1.0,0
1489584518787382630,297,1489584518784635603,,0,0,46.5184822083,6.56662940979,2.77602830977e-40,1.0,0.0,0.0,0.0,1.0,0.0,0.0,0.0,1.0,0
1489584518887044197,298,1489584518884686440,,0,0,46.5184822083,6.56661224365,2.77602830977e-40,1.0,0.0,0.0,0.0,1.0,0.0,0.0,0.0,1.0,0
1489584518986508681,299,1489584518984589725,,0,0,46.5184822083,6.56661224365,2.77602830977e-40,1.0,0.0,0.0,0.0,1.0,0.0,0.0,0.0,1.0,0
1489584519087568891,300,1489584519084668791,,0,0,46.5184822083,6.56660699844,2.77602830977e-40,1.0,0.0,0.0,0.0,1.0,0.0,0.0,0.0,1.0,0
1489584519188061081,301,1489584519184629785,,0,0,46.5184822083,6.56660699844,2.77602830977e-40,1.0,0.0,0.0,0.0,1.0,0.0,0.0,0.0,1.0,0
1489584519287706034,302,1489584519284685726,,0,0,46.5184822083,6.56661891937,2.77602830977e-40,1.0,0.0,0.0,0.0,1.0,0.0,0.0,0.0,1.0,0
1489584519390231086,303,1489584519385592655,,0,0,46.5184822083,6.56661891937,2.77602830977e-40,1.0,0.0,0.0,0.0,1.0,0.0,0.0,0.0,1.0,0
1489584519487893124,304,1489584519484674900,,0,0,46.5184822083,6.56661558151,2.77602830977e-40,1.0,0.0,0.0,0.0,1.0,0.0,0.0,0.0,1.0,0
1489584519587176566,305,1489584519584612404,,0,0,46.5184822083,6.56661558151,2.77602830977e-40,1.0,0.0,0.0,0.0,1.0,0.0,0.0,0.0,1.0,0
1489584519687917923,306,1489584519684671313,,0,0,46.5184783936,6.56661605835,2.77602830977e-40,1.0,0.0,0.0,0.0,1.0,0.0,0.0,0.0,1.0,0
1489584519787076782,307,1489584519784606682,,0,0,46.5184783936,6.56661605835,2.77602830977e-40,1.0,0.0,0.0,0.0,1.0,0.0,0.0,0.0,1.0,0
1489584519886970380,308,1489584519884681738,,0,0,46.5184783936,6.56662607193,2.77602830977e-40,1.0,0.0,0.0,0.0,1.0,0.0,0.0,0.0,1.0,0
1489584519987795174,309,1489584519984610804,,0,0,46.5184783936,6.56662607193,2.77602830977e-40,1.0,0.0,0.0,0.0,1.0,0.0,0.0,0.0,1.0,0
1489584520087883667,310,1489584520084688255,,0,0,46.5184783936,6.5666270256,2.77602830977e-40,1.0,0.0,0.0,0.0,1.0,0.0,0.0,0.0,1.0,0
1489584520187462786,311,1489584520184603728,,0,0,46.5184783936,6.5666270256,2.77602830977e-40,1.0,0.0,0.0,0.0,1.0,0.0,0.0,0.0,1.0,0
1489584520290193671,312,1489584520284667534,,0,0,46.5184822083,6.56663656235,2.77602830977e-40,1.0,0.0,0.0,0.0,1.0,0.0,0.0,0.0,1.0,0
1489584520388015345,313,1489584520384616444,,0,0,46.5184822083,6.56663656235,2.77602830977e-40,1.0,0.0,0.0,0.0,1.0,0.0,0.0,0.0,1.0,0
1489584520487230454,314,1489584520484675666,,0,0,46.5184822083,6.56663274765,2.77602830977e-40,1.0,0.0,0.0,0.0,1.0,0.0,0.0,0.0,1.0,0
1489584520587338634,315,1489584520584602493,,0,0,46.5184822083,6.56663274765,2.77602830977e-40,1.0,0.0,0.0,0.0,1.0,0.0,0.0,0.0,1.0,0
1489584520688023325,316,1489584520684850465,,0,0,46.5184822083,6.56663322449,2.77602830977e-40,1.0,0.0,0.0,0.0,1.0,0.0,0.0,0.0,1.0,0
1489584520787071351,317,1489584520784603125,,0,0,46.5184822083,6.56663322449,2.77602830977e-40,1.0,0.0,0.0,0.0,1.0,0.0,0.0,0.0,1.0,0
1489584520890276506,318,1489584520884679431,,0,0,46.5184822083,6.56664180756,2.77602830977e-40,1.0,0.0,0.0,0.0,1.0,0.0,0.0,0.0,1.0,0
1489584520988412085,319,1489584520984625841,,0,0,46.5184822083,6.56664180756,2.77602830977e-40,1.0,0.0,0.0,0.0,1.0,0.0,0.0,0.0,1.0,0
1489584521087366049,320,1489584521084674595,,0,0,46.5184860229,6.56665897369,2.77602830977e-40,1.0,0.0,0.0,0.0,1.0,0.0,0.0,0.0,1.0,0
1489584521187091313,321,1489584521184606786,,0,0,46.5184860229,6.56665897369,2.77602830977e-40,1.0,0.0,0.0,0.0,1.0,0.0,0.0,0.0,1.0,0
1489584521287243765,322,1489584521284669967,,0,0,46.5184860229,6.56664323807,2.77602830977e-40,1.0,0.0,0.0,0.0,1.0,0.0,0.0,0.0,1.0,0
1489584521387123040,323,1489584521384603668,,0,0,46.5184860229,6.56664323807,2.77602830977e-40,1.0,0.0,0.0,0.0,1.0,0.0,0.0,0.0,1.0,0
1489584521487012262,324,1489584521484663932,,0,0,46.5184860229,6.56664800644,2.77602830977e-40,1.0,0.0,0.0,0.0,1.0,0.0,0.0,0.0,1.0,0
1489584521587043620,325,1489584521584605915,,0,0,46.5184860229,6.56664800644,2.77602830977e-40,1.0,0.0,0.0,0.0,1.0,0.0,0.0,0.0,1.0,0
1489584521688708934,326,1489584521684680086,,0,0,46.5184860229,6.56663560867,2.77602830977e-40,1.0,0.0,0.0,0.0,1.0,0.0,0.0,0.0,1.0,0
1489584521787335398,327,1489584521784608579,,0,0,46.5184860229,6.56663560867,2.77602830977e-40,1.0,0.0,0.0,0.0,1.0,0.0,0.0,0.0,1.0,0
1489584521888917482,328,1489584521884771082,,0,0,46.5184822083,6.56664991379,2.77602830977e-40,1.0,0.0,0.0,0.0,1.0,0.0,0.0,0.0,1.0,0
1489584521989780245,329,1489584521984609680,,0,0,46.5184822083,6.56664991379,2.77602830977e-40,1.0,0.0,0.0,0.0,1.0,0.0,0.0,0.0,1.0,0
1489584522086961191,330,1489584522084680205,,0,0,46.5184822083,6.56664943695,2.77602830977e-40,1.0,0.0,0.0,0.0,1.0,0.0,0.0,0.0,1.0,0
1489584522187307652,331,1489584522184605104,,0,0,46.5184822083,6.56664943695,2.77602830977e-40,1.0,0.0,0.0,0.0,1.0,0.0,0.0,0.0,1.0,0
1489584522296502069,332,1489584522288734112,,0,0,46.5184783936,6.56662845612,2.77602830977e-40,1.0,0.0,0.0,0.0,1.0,0.0,0.0,0.0,1.0,0
1489584522389262813,333,1489584522384604383,,0,0,46.5184783936,6.56662845612,2.77602830977e-40,1.0,0.0,0.0,0.0,1.0,0.0,0.0,0.0,1.0,0
1489584522493825518,334,1489584522484962667,,0,0,46.5184783936,6.56662940979,2.77602830977e-40,1.0,0.0,0.0,0.0,1.0,0.0,0.0,0.0,1.0,0
1489584522589630945,335,1489584522584613348,,0,0,46.5184783936,6.56662940979,2.77602830977e-40,1.0,0.0,0.0,0.0,1.0,0.0,0.0,0.0,1.0,0
1489584522691481883,336,1489584522684664446,,0,0,46.5184822083,6.56662893295,2.77602830977e-40,1.0,0.0,0.0,0.0,1.0,0.0,0.0,0.0,1.0,0
1489584522789428244,337,1489584522784614502,,0,0,46.5184822083,6.56662893295,2.77602830977e-40,1.0,0.0,0.0,0.0,1.0,0.0,0.0,0.0,1.0,0
1489584522893951001,338,1489584522884669089,,0,0,46.5184745789,6.56662273407,2.77602830977e-40,1.0,0.0,0.0,0.0,1.0,0.0,0.0,0.0,1.0,0
1489584522989921115,339,1489584522984603676,,0,0,46.5184745789,6.56662273407,2.77602830977e-40,1.0,0.0,0.0,0.0,1.0,0.0,0.0,0.0,1.0,0
1489584523091176482,340,1489584523085054616,,0,0,46.5184707642,6.56661653519,2.77602830977e-40,1.0,0.0,0.0,0.0,1.0,0.0,0.0,0.0,1.0,0
1489584523192742889,341,1489584523185388890,,0,0,46.5184707642,6.56661653519,2.77602830977e-40,1.0,0.0,0.0,0.0,1.0,0.0,0.0,0.0,1.0,0
1489584523290828156,342,1489584523284670510,,0,0,46.5184669495,6.56662464142,2.77602830977e-40,1.0,0.0,0.0,0.0,1.0,0.0,0.0,0.0,1.0,0
1489584523388979101,343,1489584523384599420,,0,0,46.5184669495,6.56662464142,2.77602830977e-40,1.0,0.0,0.0,0.0,1.0,0.0,0.0,0.0,1.0,0
1489584523489178271,344,1489584523484694059,,0,0,46.5184707642,6.56663131714,2.77602830977e-40,1.0,0.0,0.0,0.0,1.0,0.0,0.0,0.0,1.0,0
1489584523587361975,345,1489584523584598438,,0,0,46.5184707642,6.56663131714,2.77602830977e-40,1.0,0.0,0.0,0.0,1.0,0.0,0.0,0.0,1.0,0
1489584523686679115,346,1489584523684691983,,0,0,46.5184707642,6.56663179398,2.77602830977e-40,1.0,0.0,0.0,0.0,1.0,0.0,0.0,0.0,1.0,0
1489584523787972763,347,1489584523784623445,,0,0,46.5184707642,6.56663179398,2.77602830977e-40,1.0,0.0,0.0,0.0,1.0,0.0,0.0,0.0,1.0,0
1489584523887518288,348,1489584523884682771,,0,0,46.5184745789,6.56663894653,2.77602830977e-40,1.0,0.0,0.0,0.0,1.0,0.0,0.0,0.0,1.0,0
1489584523987363084,349,1489584523984626161,,0,0,46.5184745789,6.56663894653,2.77602830977e-40,1.0,0.0,0.0,0.0,1.0,0.0,0.0,0.0,1.0,0
1489584524087386837,350,1489584524084691164,,0,0,46.5184745789,6.56664562225,2.77602830977e-40,1.0,0.0,0.0,0.0,1.0,0.0,0.0,0.0,1.0,0
1489584524187289602,351,1489584524184615335,,0,0,46.5184745789,6.56664562225,2.77602830977e-40,1.0,0.0,0.0,0.0,1.0,0.0,0.0,0.0,1.0,0
1489584524287340126,352,1489584524284915494,,0,0,46.5184707642,6.56665420532,2.77602830977e-40,1.0,0.0,0.0,0.0,1.0,0.0,0.0,0.0,1.0,0
1489584524387155182,353,1489584524384607113,,0,0,46.5184707642,6.56665420532,2.77602830977e-40,1.0,0.0,0.0,0.0,1.0,0.0,0.0,0.0,1.0,0
1489584524487261644,354,1489584524484692377,,0,0,46.5184707642,6.56665658951,2.77602830977e-40,1.0,0.0,0.0,0.0,1.0,0.0,0.0,0.0,1.0,0
1489584524590242997,355,1489584524584616756,,0,0,46.5184707642,6.56665658951,2.77602830977e-40,1.0,0.0,0.0,0.0,1.0,0.0,0.0,0.0,1.0,0
1489584524687414412,356,1489584524684676030,,0,0,46.5184745789,6.566655159,2.77602830977e-40,1.0,0.0,0.0,0.0,1.0,0.0,0.0,0.0,1.0,0
1489584524787576811,357,1489584524784615409,,0,0,46.5184745789,6.566655159,2.77602830977e-40,1.0,0.0,0.0,0.0,1.0,0.0,0.0,0.0,1.0,0
1489584524888390772,358,1489584524884675204,,0,0,46.5184707642,6.56665468216,2.77602830977e-40,1.0,0.0,0.0,0.0,1.0,0.0,0.0,0.0,1.0,0
1489584524987918172,359,1489584524984610677,,0,0,46.5184707642,6.56665468216,2.77602830977e-40,1.0,0.0,0.0,0.0,1.0,0.0,0.0,0.0,1.0,0
1489584525087787655,360,1489584525084683910,,0,0,46.5184707642,6.566655159,2.77602830977e-40,1.0,0.0,0.0,0.0,1.0,0.0,0.0,0.0,1.0,0
1489584525187781565,361,1489584525184611414,,0,0,46.5184707642,6.566655159,2.77602830977e-40,1.0,0.0,0.0,0.0,1.0,0.0,0.0,0.0,1.0,0
1489584525287743965,362,1489584525284677615,,0,0,46.5184707642,6.56665277481,2.77602830977e-40,1.0,0.0,0.0,0.0,1.0,0.0,0.0,0.0,1.0,0
1489584525389017143,363,1489584525384614442,,0,0,46.5184707642,6.56665277481,2.77602830977e-40,1.0,0.0,0.0,0.0,1.0,0.0,0.0,0.0,1.0,0
1489584525486620588,364,1489584525484683248,,0,0,46.5184707642,6.5666437149,2.77602830977e-40,1.0,0.0,0.0,0.0,1.0,0.0,0.0,0.0,1.0,0
1489584525587649705,365,1489584525584606793,,0,0,46.5184707642,6.5666437149,2.77602830977e-40,1.0,0.0,0.0,0.0,1.0,0.0,0.0,0.0,1.0,0
1489584525688188406,366,1489584525684678932,,0,0,46.5184707642,6.56664896011,2.77602830977e-40,1.0,0.0,0.0,0.0,1.0,0.0,0.0,0.0,1.0,0
1489584525787893462,367,1489584525785458726,,0,0,46.5184707642,6.56664896011,2.77602830977e-40,1.0,0.0,0.0,0.0,1.0,0.0,0.0,0.0,1.0,0
1489584525886625030,368,1489584525884671752,,0,0,46.5184745789,6.56665086746,2.77602830977e-40,1.0,0.0,0.0,0.0,1.0,0.0,0.0,0.0,1.0,0
1489584525987259043,369,1489584525984613683,,0,0,46.5184745789,6.56665086746,2.77602830977e-40,1.0,0.0,0.0,0.0,1.0,0.0,0.0,0.0,1.0,0
1489584526087362641,370,1489584526084684051,,0,0,46.5184707642,6.5666475296,2.77602830977e-40,1.0,0.0,0.0,0.0,1.0,0.0,0.0,0.0,1.0,0
1489584526187419207,371,1489584526184601815,,0,0,46.5184707642,6.5666475296,2.77602830977e-40,1.0,0.0,0.0,0.0,1.0,0.0,0.0,0.0,1.0,0
1489584526287091242,372,1489584526284664371,,0,0,46.5184707642,6.56665039062,2.77602830977e-40,1.0,0.0,0.0,0.0,1.0,0.0,0.0,0.0,1.0,0
1489584526386834632,373,1489584526384600833,,0,0,46.5184707642,6.56665039062,2.77602830977e-40,1.0,0.0,0.0,0.0,1.0,0.0,0.0,0.0,1.0,0
1489584526487398853,374,1489584526484682503,,0,0,46.5184745789,6.56664323807,2.77602830977e-40,1.0,0.0,0.0,0.0,1.0,0.0,0.0,0.0,1.0,0
1489584526587552294,375,1489584526584702299,,0,0,46.5184745789,6.56664323807,2.77602830977e-40,1.0,0.0,0.0,0.0,1.0,0.0,0.0,0.0,1.0,0
1489584526687108393,376,1489584526684675532,,0,0,46.5184745789,6.56663990021,2.77602830977e-40,1.0,0.0,0.0,0.0,1.0,0.0,0.0,0.0,1.0,0
1489584526787735791,377,1489584526784608556,,0,0,46.5184745789,6.56663990021,2.77602830977e-40,1.0,0.0,0.0,0.0,1.0,0.0,0.0,0.0,1.0,0
1489584526887838763,378,1489584526884664706,,0,0,46.5184745789,6.56663274765,2.77602830977e-40,1.0,0.0,0.0,0.0,1.0,0.0,0.0,0.0,1.0,0
1489584526987577257,379,1489584526984598095,,0,0,46.5184745789,6.56663274765,2.77602830977e-40,1.0,0.0,0.0,0.0,1.0,0.0,0.0,0.0,1.0,0
1489584527087463094,380,1489584527084682994,,0,0,46.5184745789,6.56663417816,2.77602830977e-40,1.0,0.0,0.0,0.0,1.0,0.0,0.0,0.0,1.0,0
1489584527187602785,381,1489584527184616540,,0,0,46.5184745789,6.56663417816,2.77602830977e-40,1.0,0.0,0.0,0.0,1.0,0.0,0.0,0.0,1.0,0
1489584527286892894,382,1489584527284677533,,0,0,46.5184745789,6.56662940979,2.77602830977e-40,1.0,0.0,0.0,0.0,1.0,0.0,0.0,0.0,1.0,0
1489584527387066179,383,1489584527384601391,,0,0,46.5184745789,6.56662940979,2.77602830977e-40,1.0,0.0,0.0,0.0,1.0,0.0,0.0,0.0,1.0,0
1489584527487202589,384,1489584527484683270,,0,0,46.5184783936,6.5666270256,2.77602830977e-40,1.0,0.0,0.0,0.0,1.0,0.0,0.0,0.0,1.0,0
1489584527587050770,385,1489584527584607128,,0,0,46.5184783936,6.5666270256,2.77602830977e-40,1.0,0.0,0.0,0.0,1.0,0.0,0.0,0.0,1.0,0
1489584527687188377,386,1489584527684679423,,0,0,46.5184783936,6.56662368774,2.77602830977e-40,1.0,0.0,0.0,0.0,1.0,0.0,0.0,0.0,1.0,0
1489584527787113017,387,1489584527784624114,,0,0,46.5184783936,6.56662368774,2.77602830977e-40,1.0,0.0,0.0,0.0,1.0,0.0,0.0,0.0,1.0,0
1489584527887676561,388,1489584527884683805,,0,0,46.5184745789,6.56662893295,2.77602830977e-40,1.0,0.0,0.0,0.0,1.0,0.0,0.0,0.0,1.0,0
1489584527987423805,389,1489584527984607611,,0,0,46.5184745789,6.56662893295,2.77602830977e-40,1.0,0.0,0.0,0.0,1.0,0.0,0.0,0.0,1.0,0
1489584528086751153,390,1489584528084666209,,0,0,46.5184707642,6.56663227081,2.77602830977e-40,1.0,0.0,0.0,0.0,1.0,0.0,0.0,0.0,1.0,0
1489584528188408655,391,1489584528184606733,,0,0,46.5184707642,6.56663227081,2.77602830977e-40,1.0,0.0,0.0,0.0,1.0,0.0,0.0,0.0,1.0,0
1489584528301490461,392,1489584528298530778,,0,0,46.5184707642,6.56663322449,2.77602830977e-40,1.0,0.0,0.0,0.0,1.0,0.0,0.0,0.0,1.0,0
1489584528387621580,393,1489584528384603980,,0,0,46.5184707642,6.56663322449,2.77602830977e-40,1.0,0.0,0.0,0.0,1.0,0.0,0.0,0.0,1.0,0
1489584528489344706,394,1489584528484676276,,0,0,46.5184745789,6.56663656235,2.77602830977e-40,1.0,0.0,0.0,0.0,1.0,0.0,0.0,0.0,1.0,0
1489584528587894556,395,1489584528584609196,,0,0,46.5184745789,6.56663656235,2.77602830977e-40,1.0,0.0,0.0,0.0,1.0,0.0,0.0,0.0,1.0,0
1489584528687245654,396,1489584528684680241,,0,0,46.5184707642,6.5666384697,2.77602830977e-40,1.0,0.0,0.0,0.0,1.0,0.0,0.0,0.0,1.0,0
1489584528787700657,397,1489584528784610766,,0,0,46.5184707642,6.5666384697,2.77602830977e-40,1.0,0.0,0.0,0.0,1.0,0.0,0.0,0.0,1.0,0
1489584528888005921,398,1489584528884663895,,0,0,46.5184593201,6.5666475296,2.77602830977e-40,1.0,0.0,0.0,0.0,1.0,0.0,0.0,0.0,1.0,0
1489584528987371655,399,1489584528984604836,,0,0,46.5184593201,6.5666475296,2.77602830977e-40,1.0,0.0,0.0,0.0,1.0,0.0,0.0,0.0,1.0,0
1489584529088173897,400,1489584529084712027,,0,0,46.5184555054,6.56664562225,2.77602830977e-40,1.0,0.0,0.0,0.0,1.0,0.0,0.0,0.0,1.0,0
1489584529187357443,401,1489584529184607552,,0,0,46.5184555054,6.56664562225,2.77602830977e-40,1.0,0.0,0.0,0.0,1.0,0.0,0.0,0.0,1.0,0
1489584529286682083,402,1489584529284675003,,0,0,46.5184707642,6.56663656235,2.77602830977e-40,1.0,0.0,0.0,0.0,1.0,0.0,0.0,0.0,1.0,0
1489584529387925523,403,1489584529384603965,,0,0,46.5184707642,6.56663656235,2.77602830977e-40,1.0,0.0,0.0,0.0,1.0,0.0,0.0,0.0,1.0,0
1489584529487334277,404,1489584529484667979,,0,0,46.5184745789,6.56663513184,2.77602830977e-40,1.0,0.0,0.0,0.0,1.0,0.0,0.0,0.0,1.0,0
1489584529586287929,405,1489584529584607723,,0,0,46.5184745789,6.56663513184,2.77602830977e-40,1.0,0.0,0.0,0.0,1.0,0.0,0.0,0.0,1.0,0
1489584529691434539,406,1489584529684833820,,0,0,46.5184745789,6.566634655,2.77602830977e-40,1.0,0.0,0.0,0.0,1.0,0.0,0.0,0.0,1.0,0
1489584529787005122,407,1489584529784614918,,0,0,46.5184745789,6.566634655,2.77602830977e-40,1.0,0.0,0.0,0.0,1.0,0.0,0.0,0.0,1.0,0
1489584529887373251,408,1489584529884666171,,0,0,46.5184707642,6.566634655,2.77602830977e-40,1.0,0.0,0.0,0.0,1.0,0.0,0.0,0.0,1.0,0
1489584529987470962,409,1489584529984618623,,0,0,46.5184707642,6.566634655,2.77602830977e-40,1.0,0.0,0.0,0.0,1.0,0.0,0.0,0.0,1.0,0
1489584530087296956,410,1489584530084709512,,0,0,46.5184669495,6.56664037704,2.77602830977e-40,1.0,0.0,0.0,0.0,1.0,0.0,0.0,0.0,1.0,0
1489584530188091386,411,1489584530184617745,,0,0,46.5184669495,6.56664037704,2.77602830977e-40,1.0,0.0,0.0,0.0,1.0,0.0,0.0,0.0,1.0,0
1489584530297547625,412,1489584530293024611,,0,0,46.5184707642,6.56663751602,2.77602830977e-40,1.0,0.0,0.0,0.0,1.0,0.0,0.0,0.0,1.0,0
1489584530387040717,413,1489584530384607909,,0,0,46.5184707642,6.56663751602,2.77602830977e-40,1.0,0.0,0.0,0.0,1.0,0.0,0.0,0.0,1.0,0
1489584530487376606,414,1489584530484685152,,0,0,46.5184860229,6.5666308403,2.77602830977e-40,1.0,0.0,0.0,0.0,1.0,0.0,0.0,0.0,1.0,0
1489584530587149214,415,1489584530584607239,,0,0,46.5184860229,6.5666308403,2.77602830977e-40,1.0,0.0,0.0,0.0,1.0,0.0,0.0,0.0,1.0,0
1489584530687173124,416,1489584530684670680,,0,0,46.5184860229,6.56663608551,2.77602830977e-40,1.0,0.0,0.0,0.0,1.0,0.0,0.0,0.0,1.0,0
1489584530787273336,417,1489584530784609121,,0,0,46.5184860229,6.56663608551,2.77602830977e-40,1.0,0.0,0.0,0.0,1.0,0.0,0.0,0.0,1.0,0
1489584530887202715,418,1489584530884672250,,0,0,46.5184860229,6.56663131714,2.77602830977e-40,1.0,0.0,0.0,0.0,1.0,0.0,0.0,0.0,1.0,0
1489584530987749124,419,1489584530984606160,,0,0,46.5184860229,6.56663131714,2.77602830977e-40,1.0,0.0,0.0,0.0,1.0,0.0,0.0,0.0,1.0,0
1489584531088455845,420,1489584531084679393,,0,0,46.5184745789,6.56663942337,2.77602830977e-40,1.0,0.0,0.0,0.0,1.0,0.0,0.0,0.0,1.0,0
1489584531187573871,421,1489584531184619240,,0,0,46.5184745789,6.56663942337,2.77602830977e-40,1.0,0.0,0.0,0.0,1.0,0.0,0.0,0.0,1.0,0
1489584531288156374,422,1489584531285494972,,0,0,46.5184860229,6.5666308403,2.77602830977e-40,1.0,0.0,0.0,0.0,1.0,0.0,0.0,0.0,1.0,0
1489584531387433410,423,1489584531384611175,,0,0,46.5184860229,6.5666308403,2.77602830977e-40,1.0,0.0,0.0,0.0,1.0,0.0,0.0,0.0,1.0,0
1489584531487385602,424,1489584531484680814,,0,0,46.5184860229,6.56662464142,2.77602830977e-40,1.0,0.0,0.0,0.0,1.0,0.0,0.0,0.0,1.0,0
1489584531586856335,425,1489584531584644412,,0,0,46.5184860229,6.56662464142,2.77602830977e-40,1.0,0.0,0.0,0.0,1.0,0.0,0.0,0.0,1.0,0
1489584531688840659,426,1489584531684698321,,0,0,46.5184860229,6.56662130356,2.77602830977e-40,1.0,0.0,0.0,0.0,1.0,0.0,0.0,0.0,1.0,0
1489584531786933947,427,1489584531784619888,,0,0,46.5184860229,6.56662130356,2.77602830977e-40,1.0,0.0,0.0,0.0,1.0,0.0,0.0,0.0,1.0,0
1489584531887596501,428,1489584531884684214,,0,0,46.5184822083,6.56662797928,2.77602830977e-40,1.0,0.0,0.0,0.0,1.0,0.0,0.0,0.0,1.0,0
1489584531986949215,429,1489584531984669218,,0,0,46.5184822083,6.56662797928,2.77602830977e-40,1.0,0.0,0.0,0.0,1.0,0.0,0.0,0.0,1.0,0
1489584532087457082,430,1489584532084684847,,0,0,46.518497467,6.56662034988,2.77602830977e-40,1.0,0.0,0.0,0.0,1.0,0.0,0.0,0.0,1.0,0
1489584532186912399,431,1489584532184636569,,0,0,46.518497467,6.56662034988,2.77602830977e-40,1.0,0.0,0.0,0.0,1.0,0.0,0.0,0.0,1.0,0
1489584532290829376,432,1489584532287947818,,0,0,46.5184936523,6.56662654877,2.77602830977e-40,1.0,0.0,0.0,0.0,1.0,0.0,0.0,0.0,1.0,0
1489584532387551416,433,1489584532384612254,,0,0,46.5184936523,6.56662654877,2.77602830977e-40,1.0,0.0,0.0,0.0,1.0,0.0,0.0,0.0,1.0,0
1489584532496451198,434,1489584532492880057,,0,0,46.5184860229,6.56663799286,2.77602830977e-40,1.0,0.0,0.0,0.0,1.0,0.0,0.0,0.0,1.0,0
1489584532587318195,435,1489584532584604345,,0,0,46.5184860229,6.56663799286,2.77602830977e-40,1.0,0.0,0.0,0.0,1.0,0.0,0.0,0.0,1.0,0
1489584532701259792,436,1489584532698572296,,0,0,46.5184822083,6.56663656235,2.77602830977e-40,1.0,0.0,0.0,0.0,1.0,0.0,0.0,0.0,1.0,0
1489584532787127317,437,1489584532784603779,,0,0,46.5184822083,6.56663656235,2.77602830977e-40,1.0,0.0,0.0,0.0,1.0,0.0,0.0,0.0,1.0,0
1489584532887746382,438,1489584532884908939,,0,0,46.5184783936,6.56664562225,2.77602830977e-40,1.0,0.0,0.0,0.0,1.0,0.0,0.0,0.0,1.0,0
1489584532987285657,439,1489584532984626599,,0,0,46.5184783936,6.56664562225,2.77602830977e-40,1.0,0.0,0.0,0.0,1.0,0.0,0.0,0.0,1.0,0
1489584533095977106,440,1489584533090996072,,0,0,46.5184707642,6.56663131714,2.77602830977e-40,1.0,0.0,0.0,0.0,1.0,0.0,0.0,0.0,1.0,0
1489584533187244988,441,1489584533184654679,,0,0,46.5184707642,6.56663131714,2.77602830977e-40,1.0,0.0,0.0,0.0,1.0,0.0,0.0,0.0,1.0,0
1489584533288977385,442,1489584533284678277,,0,0,46.5184822083,6.56662750244,2.77602830977e-40,1.0,0.0,0.0,0.0,1.0,0.0,0.0,0.0,1.0,0
1489584533390112751,443,1489584533384616614,,0,0,46.5184822083,6.56662750244,2.77602830977e-40,1.0,0.0,0.0,0.0,1.0,0.0,0.0,0.0,1.0,0
1489584533492361866,444,1489584533484693805,,0,0,46.5184745789,6.56662559509,2.77602830977e-40,1.0,0.0,0.0,0.0,1.0,0.0,0.0,0.0,1.0,0
1489584533591464059,445,1489584533584612038,,0,0,46.5184745789,6.56662559509,2.77602830977e-40,1.0,0.0,0.0,0.0,1.0,0.0,0.0,0.0,1.0,0
1489584533686857351,446,1489584533684673812,,0,0,46.5184745789,6.56661701202,2.77602830977e-40,1.0,0.0,0.0,0.0,1.0,0.0,0.0,0.0,1.0,0
1489584533787740634,447,1489584533784636108,,0,0,46.5184745789,6.56661701202,2.77602830977e-40,1.0,0.0,0.0,0.0,1.0,0.0,0.0,0.0,1.0,0
1489584533887252253,448,1489584533884691476,,0,0,46.5184898376,6.56659603119,2.77602830977e-40,1.0,0.0,0.0,0.0,1.0,0.0,0.0,0.0,1.0,0
1489584533990393919,449,1489584533984619657,,0,0,46.5184898376,6.56659603119,2.77602830977e-40,1.0,0.0,0.0,0.0,1.0,0.0,0.0,0.0,1.0,0
1489584534096639746,450,1489584534093755584,,0,0,46.5184898376,6.56661319733,2.77602830977e-40,1.0,0.0,0.0,0.0,1.0,0.0,0.0,0.0,1.0,0
1489584534188078149,451,1489584534184608154,,0,0,46.5184898376,6.56661319733,2.77602830977e-40,1.0,0.0,0.0,0.0,1.0,0.0,0.0,0.0,1.0,0
1489584534290415493,452,1489584534287254247,,0,0,46.5184860229,6.5666012764,2.77602830977e-40,1.0,0.0,0.0,0.0,1.0,0.0,0.0,0.0,1.0,0
1489584534387642584,453,1489584534384616963,,0,0,46.5184860229,6.5666012764,2.77602830977e-40,1.0,0.0,0.0,0.0,1.0,0.0,0.0,0.0,1.0,0
1489584534488318784,454,1489584534484675873,,0,0,46.5184936523,6.56660747528,2.77602830977e-40,1.0,0.0,0.0,0.0,1.0,0.0,0.0,0.0,1.0,0
1489584534589726755,455,1489584534584613169,,0,0,46.5184936523,6.56660747528,2.77602830977e-40,1.0,0.0,0.0,0.0,1.0,0.0,0.0,0.0,1.0,0
1489584534687918220,456,1489584534684681714,,0,0,46.518497467,6.56659698486,2.77602830977e-40,1.0,0.0,0.0,0.0,1.0,0.0,0.0,0.0,1.0,0
1489584534788081608,457,1489584534784608072,,0,0,46.518497467,6.56659698486,2.77602830977e-40,1.0,0.0,0.0,0.0,1.0,0.0,0.0,0.0,1.0,0
1489584534897878264,458,1489584534884664430,,0,0,46.5184860229,6.56660604477,2.77602830977e-40,1.0,0.0,0.0,0.0,1.0,0.0,0.0,0.0,1.0,0
1489584534988181043,459,1489584534984606413,,0,0,46.5184860229,6.56660604477,2.77602830977e-40,1.0,0.0,0.0,0.0,1.0,0.0,0.0,0.0,1.0,0
1489584535091071094,460,1489584535084673187,,0,0,46.5184898376,6.56659841537,2.77602830977e-40,1.0,0.0,0.0,0.0,1.0,0.0,0.0,0.0,1.0,0
1489584535187492249,461,1489584535184607201,,0,0,46.5184898376,6.56659841537,2.77602830977e-40,1.0,0.0,0.0,0.0,1.0,0.0,0.0,0.0,1.0,0
1489584535290825477,462,1489584535284682622,,0,0,46.518497467,6.56660461426,2.77602830977e-40,1.0,0.0,0.0,0.0,1.0,0.0,0.0,0.0,1.0,0
1489584535389175952,463,1489584535384620073,,0,0,46.518497467,6.56660461426,2.77602830977e-40,1.0,0.0,0.0,0.0,1.0,0.0,0.0,0.0,1.0,0
1489584535488831737,464,1489584535484672056,,0,0,46.5184936523,6.56661224365,2.77602830977e-40,1.0,0.0,0.0,0.0,1.0,0.0,0.0,0.0,1.0,0
1489584535587892315,465,1489584535584618570,,0,0,46.5184936523,6.56661224365,2.77602830977e-40,1.0,0.0,0.0,0.0,1.0,0.0,0.0,0.0,1.0,0
1489584535687397841,466,1489584535685480187,,0,0,46.5184745789,6.56662082672,2.77602830977e-40,1.0,0.0,0.0,0.0,1.0,0.0,0.0,0.0,1.0,0
1489584535787111803,467,1489584535784606651,,0,0,46.5184745789,6.56662082672,2.77602830977e-40,1.0,0.0,0.0,0.0,1.0,0.0,0.0,0.0,1.0,0
1489584535888482847,468,1489584535884672175,,0,0,46.5184669495,6.56663322449,2.77602830977e-40,1.0,0.0,0.0,0.0,1.0,0.0,0.0,0.0,1.0,0
1489584535987077019,469,1489584535984613012,,0,0,46.5184669495,6.56663322449,2.77602830977e-40,1.0,0.0,0.0,0.0,1.0,0.0,0.0,0.0,1.0,0
1489584536088540250,470,1489584536085754056,,0,0,46.5184707642,6.56664133072,2.77602830977e-40,1.0,0.0,0.0,0.0,1.0,0.0,0.0,0.0,1.0,0
1489584536187139318,471,1489584536184608749,,0,0,46.5184707642,6.56664133072,2.77602830977e-40,1.0,0.0,0.0,0.0,1.0,0.0,0.0,0.0,1.0,0
1489584536624797088,472,1489584536616888194,,0,0,46.5184822083,6.56661987305,2.77602830977e-40,1.0,0.0,0.0,0.0,1.0,0.0,0.0,0.0,1.0,0
1489584536625362920,473,1489584536617965640,,0,0,46.5184822083,6.56661987305,2.77602830977e-40,1.0,0.0,0.0,0.0,1.0,0.0,0.0,0.0,1.0,0
1489584537278766820,474,1489584537276221563,,0,0,46.5185012817,6.56657648087,2.77602830977e-40,1.0,0.0,0.0,0.0,1.0,0.0,0.0,0.0,1.0,0
1489584537282472231,475,1489584537276840312,,0,0,46.5185012817,6.56657648087,2.77602830977e-40,1.0,0.0,0.0,0.0,1.0,0.0,0.0,0.0,1.0,0
1489584538061707396,476,1489584538051494703,,0,0,46.5185089111,6.56655216217,2.77602830977e-40,1.0,0.0,0.0,0.0,1.0,0.0,0.0,0.0,1.0,0
1489584538063372446,477,1489584538052310588,,0,0,46.5185089111,6.56655216217,2.77602830977e-40,1.0,0.0,0.0,0.0,1.0,0.0,0.0,0.0,1.0,0
1489584538771143606,478,1489584538764224710,,0,0,46.5185317993,6.56652641296,2.77602830977e-40,1.0,0.0,0.0,0.0,1.0,0.0,0.0,0.0,1.0,0
1489584538771178658,479,1489584538764942573,,0,0,46.5185317993,6.56652641296,2.77602830977e-40,1.0,0.0,0.0,0.0,1.0,0.0,0.0,0.0,1.0,0
1489584539465665411,480,1489584539461666615,,0,0,46.5185623169,6.5664806366,2.77602830977e-40,1.0,0.0,0.0,0.0,1.0,0.0,0.0,0.0,1.0,0
1489584539465763379,481,1489584539462310624,,0,0,46.5185623169,6.5664806366,2.77602830977e-40,1.0,0.0,0.0,0.0,1.0,0.0,0.0,0.0,1.0,0
1489584540103961312,482,1489584540100166683,,0,0,46.5185775757,6.56644201279,2.77602830977e-40,1.0,0.0,0.0,0.0,1.0,0.0,0.0,0.0,1.0,0
1489584540104042250,483,1489584540100776473,,0,0,46.5185775757,6.56644201279,2.77602830977e-40,1.0,0.0,0.0,0.0,1.0,0.0,0.0,0.0,1.0,0
1489584540707748777,484,1489584540703397429,,0,0,46.518573761,6.56640481949,2.77602830977e-40,1.0,0.0,0.0,0.0,1.0,0.0,0.0,0.0,1.0,0
1489584540708620754,485,1489584540703971387,,0,0,46.518573761,6.56640481949,2.77602830977e-40,1.0,0.0,0.0,0.0,1.0,0.0,0.0,0.0,1.0,0
1489584541220002058,486,1489584541217268624,,0,0,46.5185813904,6.5663599968,2.77602830977e-40,1.0,0.0,0.0,0.0,1.0,0.0,0.0,0.0,1.0,0
1489584541220088047,487,1489584541217868676,,0,0,46.5185813904,6.5663599968,2.77602830977e-40,1.0,0.0,0.0,0.0,1.0,0.0,0.0,0.0,1.0,0
1489584541721021814,488,1489584541716579998,,0,0,46.5185775757,6.5663394928,2.77602830977e-40,1.0,0.0,0.0,0.0,1.0,0.0,0.0,0.0,1.0,0
1489584541722341187,489,1489584541717359112,,0,0,46.5185775757,6.5663394928,2.77602830977e-40,1.0,0.0,0.0,0.0,1.0,0.0,0.0,0.0,1.0,0
1489584542206215710,490,1489584542202990715,,0,0,46.5185775757,6.56630134583,2.77602830977e-40,1.0,0.0,0.0,0.0,1.0,0.0,0.0,0.0,1.0,0
1489584542206299043,491,1489584542203578214,,0,0,46.5185775757,6.56630134583,2.77602830977e-40,1.0,0.0,0.0,0.0,1.0,0.0,0.0,0.0,1.0,0
1489584542639745569,492,1489584542631892508,,0,0,46.5185775757,6.56626749039,2.77602830977e-40,1.0,0.0,0.0,0.0,1.0,0.0,0.0,0.0,1.0,0
1489584542639816819,493,1489584542632504747,,0,0,46.5185775757,6.56626749039,2.77602830977e-40,1.0,0.0,0.0,0.0,1.0,0.0,0.0,0.0,1.0,0
1489584542927951223,494,1489584542920378943,,0,0,46.5185813904,6.56624031067,2.77602830977e-40,1.0,0.0,0.0,0.0,1.0,0.0,0.0,0.0,1.0,0
1489584542928003254,495,1489584542921021807,,0,0,46.5185813904,6.56624031067,2.77602830977e-40,1.0,0.0,0.0,0.0,1.0,0.0,0.0,0.0,1.0,0
1489584543161666648,496,1489584543158678788,,0,0,46.5185775757,6.56621837616,2.77602830977e-40,1.0,0.0,0.0,0.0,1.0,0.0,0.0,0.0,1.0,0
1489584543161750919,497,1489584543159265766,,0,0,46.5185775757,6.56621837616,2.77602830977e-40,1.0,0.0,0.0,0.0,1.0,0.0,0.0,0.0,1.0,0
1489584543482037305,498,1489584543478441321,,0,0,46.5185775757,6.56619548798,2.77602830977e-40,1.0,0.0,0.0,0.0,1.0,0.0,0.0,0.0,1.0,0
1489584543482118451,499,1489584543479027726,,0,0,46.5185775757,6.56619548798,2.77602830977e-40,1.0,0.0,0.0,0.0,1.0,0.0,0.0,0.0,1.0,0
1489584543786063039,500,1489584543782675128,,0,0,46.5185775757,6.56617116928,2.77602830977e-40,1.0,0.0,0.0,0.0,1.0,0.0,0.0,0.0,1.0,0
1489584543786190331,501,1489584543783322419,,0,0,46.5185775757,6.56617116928,2.77602830977e-40,1.0,0.0,0.0,0.0,1.0,0.0,0.0,0.0,1.0,0
1489584544102288026,502,1489584544098721469,,0,0,46.5185775757,6.56615924835,2.77602830977e-40,1.0,0.0,0.0,0.0,1.0,0.0,0.0,0.0,1.0,0
1489584544102361984,503,1489584544099326572,,0,0,46.5185775757,6.56615924835,2.77602830977e-40,1.0,0.0,0.0,0.0,1.0,0.0,0.0,0.0,1.0,0
1489584544400036426,504,1489584544396116171,,0,0,46.5185775757,6.56613445282,2.77602830977e-40,1.0,0.0,0.0,0.0,1.0,0.0,0.0,0.0,1.0,0
1489584544400323717,505,1489584544396958878,,0,0,46.5185775757,6.56613445282,2.77602830977e-40,1.0,0.0,0.0,0.0,1.0,0.0,0.0,0.0,1.0,0
1489584544677557148,506,1489584544673424967,,0,0,46.518573761,6.56611442566,2.77602830977e-40,1.0,0.0,0.0,0.0,1.0,0.0,0.0,0.0,1.0,0
1489584544679159854,507,1489584544674050174,,0,0,46.518573761,6.56611442566,2.77602830977e-40,1.0,0.0,0.0,0.0,1.0,0.0,0.0,0.0,1.0,0
1489584545029518695,508,1489584545025965888,,0,0,46.5185699463,6.5660943985,2.77602830977e-40,1.0,0.0,0.0,0.0,1.0,0.0,0.0,0.0,1.0,0
1489584545029772548,509,1489584545026560626,,0,0,46.5185699463,6.5660943985,2.77602830977e-40,1.0,0.0,0.0,0.0,1.0,0.0,0.0,0.0,1.0,0
1489584545315694404,510,1489584545310502433,,0,0,46.5185661316,6.56606674194,2.77602830977e-40,1.0,0.0,0.0,0.0,1.0,0.0,0.0,0.0,1.0,0
1489584545316042893,511,1489584545311155973,,0,0,46.5185661316,6.56606674194,2.77602830977e-40,1.0,0.0,0.0,0.0,1.0,0.0,0.0,0.0,1.0,0
1489584545576959318,512,1489584545572854897,,0,0,46.5185585022,6.56605815887,2.77602830977e-40,1.0,0.0,0.0,0.0,1.0,0.0,0.0,0.0,1.0,0
1489584545577003953,513,1489584545573497761,,0,0,46.5185585022,6.56605815887,2.77602830977e-40,1.0,0.0,0.0,0.0,1.0,0.0,0.0,0.0,1.0,0
1489584545872408294,514,1489584545867927624,,0,0,46.5185508728,6.56604146957,2.77602830977e-40,1.0,0.0,0.0,0.0,1.0,0.0,0.0,0.0,1.0,0
1489584545872709231,515,1489584545868515748,,0,0,46.5185508728,6.56604146957,2.77602830977e-40,1.0,0.0,0.0,0.0,1.0,0.0,0.0,0.0,1.0,0
1489584546149564017,516,1489584546144885900,,0,0,46.5185546875,6.56600522995,2.77602830977e-40,1.0,0.0,0.0,0.0,1.0,0.0,0.0,0.0,1.0,0
1489584546149637455,517,1489584546145840429,,0,0,46.5185546875,6.56600522995,2.77602830977e-40,1.0,0.0,0.0,0.0,1.0,0.0,0.0,0.0,1.0,0
1489584546404613941,518,1489584546401994778,,0,0,46.5185508728,6.56599760056,2.77602830977e-40,1.0,0.0,0.0,0.0,1.0,0.0,0.0,0.0,1.0,0
1489584546404709514,519,1489584546403075402,,0,0,46.5185508728,6.56599760056,2.77602830977e-40,1.0,0.0,0.0,0.0,1.0,0.0,0.0,0.0,1.0,0
1489584546670015307,520,1489584546668139945,,0,0,46.5185432434,6.56598567963,2.77602830977e-40,1.0,0.0,0.0,0.0,1.0,0.0,0.0,0.0,1.0,0
1489584546671713325,521,1489584546668740361,,0,0,46.5185432434,6.56598567963,2.77602830977e-40,1.0,0.0,0.0,0.0,1.0,0.0,0.0,0.0,1.0,0
1489584546959355334,522,1489584546955904558,,0,0,46.518535614,6.565969944,2.77602830977e-40,1.0,0.0,0.0,0.0,1.0,0.0,0.0,0.0,1.0,0
1489584546960727572,523,1489584546956497943,,0,0,46.518535614,6.565969944,2.77602830977e-40,1.0,0.0,0.0,0.0,1.0,0.0,0.0,0.0,1.0,0
1489584547265898304,524,1489584547262021435,,0,0,46.518535614,6.56594610214,2.77602830977e-40,1.0,0.0,0.0,0.0,1.0,0.0,0.0,0.0,1.0,0
1489584547266011585,525,1489584547262643830,,0,0,46.518535614,6.56594610214,2.77602830977e-40,1.0,0.0,0.0,0.0,1.0,0.0,0.0,0.0,1.0,0
1489584547572065858,526,1489584547567779250,,0,0,46.5185279846,6.56593704224,2.77602830977e-40,1.0,0.0,0.0,0.0,1.0,0.0,0.0,0.0,1.0,0
1489584547572549920,527,1489584547568473572,,0,0,46.5185279846,6.56593704224,2.77602830977e-40,1.0,0.0,0.0,0.0,1.0,0.0,0.0,0.0,1.0,0
1489584547888666521,528,1489584547884693089,,0,0,46.5185203552,6.56592798233,2.77602830977e-40,1.0,0.0,0.0,0.0,1.0,0.0,0.0,0.0,1.0,0
1489584547888825166,529,1489584547885406005,,0,0,46.5185203552,6.56592798233,2.77602830977e-40,1.0,0.0,0.0,0.0,1.0,0.0,0.0,0.0,1.0,0
1489584548187744346,530,1489584548184893621,,0,0,46.5185050964,6.56593799591,2.77602830977e-40,1.0,0.0,0.0,0.0,1.0,0.0,0.0,0.0,1.0,0
1489584548187799554,531,1489584548185584558,,0,0,46.5185050964,6.56593799591,2.77602830977e-40,1.0,0.0,0.0,0.0,1.0,0.0,0.0,0.0,1.0,0
1489584548481115721,532,1489584548476458906,,0,0,46.5184898376,6.56593608856,2.77602830977e-40,1.0,0.0,0.0,0.0,1.0,0.0,0.0,0.0,1.0,0
1489584548481158586,533,1489584548477047550,,0,0,46.5184898376,6.56593608856,2.77602830977e-40,1.0,0.0,0.0,0.0,1.0,0.0,0.0,0.0,1.0,0
1489584548748296980,534,1489584548743830529,,0,0,46.5184745789,6.56594610214,2.77602830977e-40,1.0,0.0,0.0,0.0,1.0,0.0,0.0,0.0,1.0,0
1489584548748827500,535,1489584548744442299,,0,0,46.5184745789,6.56594610214,2.77602830977e-40,1.0,0.0,0.0,0.0,1.0,0.0,0.0,0.0,1.0,0
1489584549118465322,536,1489584549109268253,,0,0,46.5184631348,6.56594896317,2.77602830977e-40,1.0,0.0,0.0,0.0,1.0,0.0,0.0,0.0,1.0,0
1489584549121101672,537,1489584549109963981,,0,0,46.5184631348,6.56594896317,2.77602830977e-40,1.0,0.0,0.0,0.0,1.0,0.0,0.0,0.0,1.0,0
1489584549295077813,538,1489584549292797869,,0,0,46.5184593201,6.56595468521,2.77602830977e-40,1.0,0.0,0.0,0.0,1.0,0.0,0.0,0.0,1.0,0
1489584549314101117,539,1489584549310086488,,0,0,46.5184593201,6.56595468521,2.77602830977e-40,1.0,0.0,0.0,0.0,1.0,0.0,0.0,0.0,1.0,0
1489584549459358135,540,1489584549456000120,,0,0,46.5184555054,6.56596279144,2.77602830977e-40,1.0,0.0,0.0,0.0,1.0,0.0,0.0,0.0,1.0,0
1489584549512628992,541,1489584549510072537,,0,0,46.5184555054,6.56596279144,2.77602830977e-40,1.0,0.0,0.0,0.0,1.0,0.0,0.0,0.0,1.0,0
1489584549655643669,542,1489584549653402475,,0,0,46.5184555054,6.56596279144,2.77602830977e-40,1.0,0.0,0.0,0.0,1.0,0.0,0.0,0.0,1.0,0
1489584549713889049,543,1489584549710098170,,0,0,46.5184555054,6.56596279144,2.77602830977e-40,1.0,0.0,0.0,0.0,1.0,0.0,0.0,0.0,1.0,0
1489584549862709499,544,1489584549860103253,,0,0,46.5184593201,6.56595754623,2.77602830977e-40,1.0,0.0,0.0,0.0,1.0,0.0,0.0,0.0,1.0,0
1489584549915976970,545,1489584549910096875,,0,0,46.5184593201,6.56595754623,2.77602830977e-40,1.0,0.0,0.0,0.0,1.0,0.0,0.0,0.0,1.0,0
1489584550037484806,546,1489584550034670331,,0,0,46.5184631348,6.56595182419,2.77602830977e-40,1.0,0.0,0.0,0.0,1.0,0.0,0.0,0.0,1.0,0
